[
  {
    "City": "Bay Minette",
    "State": "AL",
    "Population": "8044",
    "Latitude": "30.88296",
    "Longitude": "-87.77305"
  },
  {
    "City": "Edna",
    "State": "TX",
    "Population": "5499",
    "Latitude": "28.97859",
    "Longitude": "-96.64609"
  },
  {
    "City": "Bayou La Batre",
    "State": "AL",
    "Population": "2558",
    "Latitude": "30.40352",
    "Longitude": "-88.24852"
  },
  {
    "City": "Henderson",
    "State": "TX",
    "Population": "13712",
    "Latitude": "32.15322",
    "Longitude": "-94.79938"
  },
  {
    "City": "Natalia",
    "State": "TX",
    "Population": "1431",
    "Latitude": "29.18968",
    "Longitude": "-98.86253"
  },
  {
    "City": "Bear Creek",
    "State": "AL",
    "Population": "1070",
    "Latitude": "34.27482",
    "Longitude": "-87.70058"
  },
  {
    "City": "Fort Hunt",
    "State": "VA",
    "Population": "16045",
    "Latitude": "38.73289",
    "Longitude": "-77.05803"
  },
  {
    "City": "Yorktown",
    "State": "VA",
    "Population": "195",
    "Latitude": "37.23876",
    "Longitude": "-76.50967"
  },
  {
    "City": "Brighton",
    "State": "AL",
    "Population": "2945",
    "Latitude": "33.43428",
    "Longitude": "-86.94721"
  },
  {
    "City": "Ocean View",
    "State": "DE",
    "Population": "1882",
    "Latitude": "38.54511",
    "Longitude": "-75.08907"
  },
  {
    "City": "Berry",
    "State": "AL",
    "Population": "1148",
    "Latitude": "33.65983",
    "Longitude": "-87.60001"
  },
  {
    "City": "Trinity",
    "State": "FL",
    "Population": "10907",
    "Latitude": "28.18085",
    "Longitude": "-82.68177"
  },
  {
    "City": "Villas",
    "State": "FL",
    "Population": "11569",
    "Latitude": "26.55035",
    "Longitude": "-81.8687"
  },
  {
    "City": "Bessemer",
    "State": "AL",
    "Population": "27456",
    "Latitude": "33.40178",
    "Longitude": "-86.95444"
  },
  {
    "City": "Aurora",
    "State": "IN",
    "Population": "3750",
    "Latitude": "39.057",
    "Longitude": "-84.90134"
  },
  {
    "City": "New Pekin",
    "State": "IN",
    "Population": "1401",
    "Latitude": "38.50506",
    "Longitude": "-86.01692"
  },
  {
    "City": "Stockton",
    "State": "KS",
    "Population": "1329",
    "Latitude": "39.43807",
    "Longitude": "-99.2651"
  },
  {
    "City": "Paducah",
    "State": "KY",
    "Population": "25024",
    "Latitude": "37.08339",
    "Longitude": "-88.60005"
  },
  {
    "City": "Monticello",
    "State": "LA",
    "Population": "4718",
    "Latitude": "32.59653",
    "Longitude": "-91.394"
  },
  {
    "City": "Red Chute",
    "State": "LA",
    "Population": "6261",
    "Latitude": "32.55598",
    "Longitude": "-93.61323"
  },
  {
    "City": "Jessup",
    "State": "MD",
    "Population": "7137",
    "Latitude": "39.14927",
    "Longitude": "-76.77525"
  },
  {
    "City": "Birmingham",
    "State": "AL",
    "Population": "212237",
    "Latitude": "33.52066",
    "Longitude": "-86.80249"
  },
  {
    "City": "Delhi Hills",
    "State": "OH",
    "Population": "5259",
    "Latitude": "39.09284",
    "Longitude": "-84.61272"
  },
  {
    "City": "Turpin Hills",
    "State": "OH",
    "Population": "5099",
    "Latitude": "39.11006",
    "Longitude": "-84.37994"
  },
  {
    "City": "Lugoff",
    "State": "SC",
    "Population": "7434",
    "Latitude": "34.22737",
    "Longitude": "-80.68925"
  },
  {
    "City": "Blountsville",
    "State": "AL",
    "Population": "1684",
    "Latitude": "34.08149",
    "Longitude": "-86.5911"
  },
  {
    "City": "Blue Ridge",
    "State": "AL",
    "Population": "1341",
    "Latitude": "32.49264",
    "Longitude": "-86.19052"
  },
  {
    "City": "Buda",
    "State": "TX",
    "Population": "7295",
    "Latitude": "30.08521",
    "Longitude": "-97.84028"
  },
  {
    "City": "Boaz",
    "State": "AL",
    "Population": "9551",
    "Latitude": "34.20065",
    "Longitude": "-86.16637"
  },
  {
    "City": "Brent",
    "State": "AL",
    "Population": "4947",
    "Latitude": "32.93735",
    "Longitude": "-87.16472"
  },
  {
    "City": "Brewton",
    "State": "AL",
    "Population": "5408",
    "Latitude": "31.10518",
    "Longitude": "-87.07219"
  },
  {
    "City": "Bridgeport",
    "State": "AL",
    "Population": "2418",
    "Latitude": "34.94758",
    "Longitude": "-85.71442"
  },
  {
    "City": "Brook Highland",
    "State": "AL",
    "Population": "6746",
    "Latitude": "33.43566",
    "Longitude": "-86.67388"
  },
  {
    "City": "Brookside",
    "State": "AL",
    "Population": "1363",
    "Latitude": "33.63788",
    "Longitude": "-86.91666"
  },
  {
    "City": "Brookwood",
    "State": "AL",
    "Population": "1828",
    "Latitude": "33.25567",
    "Longitude": "-87.32083"
  },
  {
    "City": "Brundidge",
    "State": "AL",
    "Population": "2076",
    "Latitude": "31.72016",
    "Longitude": "-85.81606"
  },
  {
    "City": "Butler",
    "State": "AL",
    "Population": "1894",
    "Latitude": "32.08959",
    "Longitude": "-88.22197"
  },
  {
    "City": "Bynum",
    "State": "AL",
    "Population": "1795",
    "Latitude": "33.61316",
    "Longitude": "-85.96108"
  },
  {
    "City": "Cahaba Heights",
    "State": "AL",
    "Population": "5287",
    "Latitude": "33.464",
    "Longitude": "-86.73193"
  },
  {
    "City": "Calera",
    "State": "AL",
    "Population": "11620",
    "Latitude": "33.1029",
    "Longitude": "-86.7536"
  },
  {
    "City": "Camden",
    "State": "AL",
    "Population": "2020",
    "Latitude": "31.99098",
    "Longitude": "-87.29055"
  },
  {
    "City": "Camp Hill",
    "State": "AL",
    "Population": "1014",
    "Latitude": "32.80041",
    "Longitude": "-85.65357"
  },
  {
    "City": "Carbon Hill",
    "State": "AL",
    "Population": "2021",
    "Latitude": "33.89177",
    "Longitude": "-87.52612"
  },
  {
    "City": "Carrollton",
    "State": "AL",
    "Population": "1019",
    "Latitude": "33.26179",
    "Longitude": "-88.09503"
  },
  {
    "City": "Cedar Bluff",
    "State": "AL",
    "Population": "1820",
    "Latitude": "34.22009",
    "Longitude": "-85.60774"
  },
  {
    "City": "Center Point",
    "State": "AL",
    "Population": "16921",
    "Latitude": "33.64566",
    "Longitude": "-86.6836"
  },
  {
    "City": "Centre",
    "State": "AL",
    "Population": "3489",
    "Latitude": "34.15204",
    "Longitude": "-85.67885"
  },
  {
    "City": "Centreville",
    "State": "AL",
    "Population": "2778",
    "Latitude": "32.9462",
    "Longitude": "-87.11669"
  },
  {
    "City": "Chalkville",
    "State": "AL",
    "Population": "3901",
    "Latitude": "33.65316",
    "Longitude": "-86.64777"
  },
  {
    "City": "Chatom",
    "State": "AL",
    "Population": "1288",
    "Latitude": "31.46517",
    "Longitude": "-88.25446"
  },
  {
    "City": "Chelsea",
    "State": "AL",
    "Population": "10183",
    "Latitude": "33.34011",
    "Longitude": "-86.63026"
  },
  {
    "City": "Cherokee",
    "State": "AL",
    "Population": "1048",
    "Latitude": "34.75703",
    "Longitude": "-87.97281"
  },
  {
    "City": "Chickasaw",
    "State": "AL",
    "Population": "6106",
    "Latitude": "30.7638",
    "Longitude": "-88.07472"
  },
  {
    "City": "Childersburg",
    "State": "AL",
    "Population": "5175",
    "Latitude": "33.27817",
    "Longitude": "-86.35498"
  },
  {
    "City": "Choccolocco",
    "State": "AL",
    "Population": "2804",
    "Latitude": "33.65927",
    "Longitude": "-85.70357"
  },
  {
    "City": "Citronelle",
    "State": "AL",
    "Population": "3905",
    "Latitude": "31.09073",
    "Longitude": "-88.22806"
  },
  {
    "City": "Clanton",
    "State": "AL",
    "Population": "8619",
    "Latitude": "32.83874",
    "Longitude": "-86.62943"
  },
  {
    "City": "Clay",
    "State": "AL",
    "Population": "9708",
    "Latitude": "33.7026",
    "Longitude": "-86.59971"
  },
  {
    "City": "Clayton",
    "State": "AL",
    "Population": "3008",
    "Latitude": "31.87822",
    "Longitude": "-85.44966"
  },
  {
    "City": "Cleveland",
    "State": "AL",
    "Population": "1303",
    "Latitude": "33.99093",
    "Longitude": "-86.57749"
  },
  {
    "City": "Clio",
    "State": "AL",
    "Population": "1399",
    "Latitude": "31.70878",
    "Longitude": "-85.6105"
  },
  {
    "City": "Coaling",
    "State": "AL",
    "Population": "1657",
    "Latitude": "33.15901",
    "Longitude": "-87.34083"
  },
  {
    "City": "Collinsville",
    "State": "AL",
    "Population": "1983",
    "Latitude": "34.26398",
    "Longitude": "-85.86053"
  },
  {
    "City": "Columbiana",
    "State": "AL",
    "Population": "4197",
    "Latitude": "33.17817",
    "Longitude": "-86.60721"
  },
  {
    "City": "Concord",
    "State": "AL",
    "Population": "1837",
    "Latitude": "33.46761",
    "Longitude": "-87.03111"
  },
  {
    "City": "Coosada",
    "State": "AL",
    "Population": "1224",
    "Latitude": "32.49791",
    "Longitude": "-86.33136"
  },
  {
    "City": "Cordova",
    "State": "AL",
    "Population": "2095",
    "Latitude": "33.75983",
    "Longitude": "-87.18333"
  },
  {
    "City": "Cottonwood",
    "State": "AL",
    "Population": "1289",
    "Latitude": "31.04879",
    "Longitude": "-85.30493"
  },
  {
    "City": "Cowarts",
    "State": "AL",
    "Population": "1871",
    "Latitude": "31.20018",
    "Longitude": "-85.30465"
  },
  {
    "City": "Creola",
    "State": "AL",
    "Population": "1926",
    "Latitude": "30.89185",
    "Longitude": "-88.03972"
  },
  {
    "City": "Crossville",
    "State": "AL",
    "Population": "1862",
    "Latitude": "34.28759",
    "Longitude": "-85.99414"
  },
  {
    "City": "Cullman",
    "State": "AL",
    "Population": "14775",
    "Latitude": "34.17482",
    "Longitude": "-86.84361"
  },
  {
    "City": "Dadeville",
    "State": "AL",
    "Population": "3230",
    "Latitude": "32.83124",
    "Longitude": "-85.76357"
  },
  {
    "City": "Daleville",
    "State": "AL",
    "Population": "5295",
    "Latitude": "31.31017",
    "Longitude": "-85.71299"
  },
  {
    "City": "Danville",
    "State": "AL",
    "Population": "6242",
    "Latitude": "34.41454",
    "Longitude": "-87.08751"
  },
  {
    "City": "Daphne",
    "State": "AL",
    "Population": "21570",
    "Latitude": "30.60353",
    "Longitude": "-87.9036"
  },
  {
    "City": "Dauphin Island",
    "State": "AL",
    "Population": "1238",
    "Latitude": "30.25548",
    "Longitude": "-88.10972"
  },
  {
    "City": "Deatsville",
    "State": "AL",
    "Population": "1154",
    "Latitude": "32.60819",
    "Longitude": "-86.39581"
  },
  {
    "City": "Decatur",
    "State": "AL",
    "Population": "55683",
    "Latitude": "34.60593",
    "Longitude": "-86.98334"
  },
  {
    "City": "Demopolis",
    "State": "AL",
    "Population": "7483",
    "Latitude": "32.51764",
    "Longitude": "-87.8364"
  },
  {
    "City": "Dora",
    "State": "AL",
    "Population": "2025",
    "Latitude": "33.72872",
    "Longitude": "-87.09028"
  },
  {
    "City": "Dothan",
    "State": "AL",
    "Population": "65496",
    "Latitude": "31.22323",
    "Longitude": "-85.39049"
  },
  {
    "City": "Double Springs",
    "State": "AL",
    "Population": "1083",
    "Latitude": "34.14649",
    "Longitude": "-87.40224"
  },
  {
    "City": "East Brewton",
    "State": "AL",
    "Population": "2478",
    "Latitude": "31.09323",
    "Longitude": "-87.06275"
  },
  {
    "City": "East Florence",
    "State": "AL",
    "Population": "35733",
    "Latitude": "34.80953",
    "Longitude": "-87.64947"
  },
  {
    "City": "Eclectic",
    "State": "AL",
    "Population": "1001",
    "Latitude": "32.63541",
    "Longitude": "-86.03441"
  },
  {
    "City": "Elberta",
    "State": "AL",
    "Population": "1498",
    "Latitude": "30.41436",
    "Longitude": "-87.59776"
  },
  {
    "City": "Enterprise",
    "State": "AL",
    "Population": "26562",
    "Latitude": "31.31517",
    "Longitude": "-85.85522"
  },
  {
    "City": "Eufaula",
    "State": "AL",
    "Population": "13137",
    "Latitude": "31.89127",
    "Longitude": "-85.14549"
  },
  {
    "City": "Eutaw",
    "State": "AL",
    "Population": "2934",
    "Latitude": "32.84068",
    "Longitude": "-87.88751"
  },
  {
    "City": "Evergreen",
    "State": "AL",
    "Population": "3944",
    "Latitude": "31.4335",
    "Longitude": "-86.95692"
  },
  {
    "City": "Fairfield",
    "State": "AL",
    "Population": "11117",
    "Latitude": "33.48594",
    "Longitude": "-86.91194"
  },
  {
    "City": "Fairhope",
    "State": "AL",
    "Population": "15326",
    "Latitude": "30.52297",
    "Longitude": "-87.90333"
  },
  {
    "City": "Falkville",
    "State": "AL",
    "Population": "1279",
    "Latitude": "34.36843",
    "Longitude": "-86.90862"
  },
  {
    "City": "Fayette",
    "State": "AL",
    "Population": "4619",
    "Latitude": "33.68455",
    "Longitude": "-87.83085"
  },
  {
    "City": "Fayetteville",
    "State": "AL",
    "Population": "1284",
    "Latitude": "33.14567",
    "Longitude": "-86.40581"
  },
  {
    "City": "Flint City",
    "State": "AL",
    "Population": "1033",
    "Latitude": "34.52315",
    "Longitude": "-86.97029"
  },
  {
    "City": "Florala",
    "State": "AL",
    "Population": "1980",
    "Latitude": "31.00518",
    "Longitude": "-86.328"
  },
  {
    "City": "Florence",
    "State": "AL",
    "Population": "39319",
    "Latitude": "34.79981",
    "Longitude": "-87.67725"
  },
  {
    "City": "Flomaton",
    "State": "AL",
    "Population": "1440",
    "Latitude": "31.00018",
    "Longitude": "-87.26081"
  },
  {
    "City": "Foley",
    "State": "AL",
    "Population": "14618",
    "Latitude": "30.40659",
    "Longitude": "-87.6836"
  },
  {
    "City": "Forestdale",
    "State": "AL",
    "Population": "10162",
    "Latitude": "33.57011",
    "Longitude": "-86.89638"
  },
  {
    "City": "Fort Deposit",
    "State": "AL",
    "Population": "1344",
    "Latitude": "31.98459",
    "Longitude": "-86.57859"
  },
  {
    "City": "Fort Payne",
    "State": "AL",
    "Population": "14012",
    "Latitude": "34.44425",
    "Longitude": "-85.71969"
  },
  {
    "City": "Frisco City",
    "State": "AL",
    "Population": "1309",
    "Latitude": "31.4335",
    "Longitude": "-87.40138"
  },
  {
    "City": "Fultondale",
    "State": "AL",
    "Population": "8380",
    "Latitude": "33.60483",
    "Longitude": "-86.79388"
  },
  {
    "City": "Fyffe",
    "State": "AL",
    "Population": "1018",
    "Latitude": "34.44676",
    "Longitude": "-85.90414"
  },
  {
    "City": "Gadsden",
    "State": "AL",
    "Population": "36856",
    "Latitude": "34.01426",
    "Longitude": "-86.00664"
  },
  {
    "City": "Gardendale",
    "State": "AL",
    "Population": "13893",
    "Latitude": "33.6601",
    "Longitude": "-86.81277"
  },
  {
    "City": "Geneva",
    "State": "AL",
    "Population": "4452",
    "Latitude": "31.03296",
    "Longitude": "-85.86382"
  },
  {
    "City": "Georgiana",
    "State": "AL",
    "Population": "1738",
    "Latitude": "31.6371",
    "Longitude": "-86.74192"
  },
  {
    "City": "Glencoe",
    "State": "AL",
    "Population": "5160",
    "Latitude": "33.95704",
    "Longitude": "-85.93247"
  },
  {
    "City": "Good Hope",
    "State": "AL",
    "Population": "2264",
    "Latitude": "34.11593",
    "Longitude": "-86.86361"
  },
  {
    "City": "Goodwater",
    "State": "AL",
    "Population": "1475",
    "Latitude": "33.06567",
    "Longitude": "-86.0533"
  },
  {
    "City": "Gordo",
    "State": "AL",
    "Population": "1750",
    "Latitude": "33.32012",
    "Longitude": "-87.9028"
  },
  {
    "City": "Grand Bay",
    "State": "AL",
    "Population": "3672",
    "Latitude": "30.47631",
    "Longitude": "-88.34223"
  },
  {
    "City": "Grayson Valley",
    "State": "AL",
    "Population": "5736",
    "Latitude": "33.64816",
    "Longitude": "-86.63943"
  },
  {
    "City": "Graysville",
    "State": "AL",
    "Population": "2165",
    "Latitude": "33.62066",
    "Longitude": "-86.97138"
  },
  {
    "City": "Greensboro",
    "State": "AL",
    "Population": "2497",
    "Latitude": "32.70458",
    "Longitude": "-87.59584"
  },
  {
    "City": "Greenville",
    "State": "AL",
    "Population": "8135",
    "Latitude": "31.8296",
    "Longitude": "-86.61775"
  },
  {
    "City": "Grove Hill",
    "State": "AL",
    "Population": "1570",
    "Latitude": "31.70877",
    "Longitude": "-87.77722"
  },
  {
    "City": "Guin",
    "State": "AL",
    "Population": "2376",
    "Latitude": "33.96566",
    "Longitude": "-87.91475"
  },
  {
    "City": "Gulf Shores",
    "State": "AL",
    "Population": "9741",
    "Latitude": "30.24604",
    "Longitude": "-87.70082"
  },
  {
    "City": "Guntersville",
    "State": "AL",
    "Population": "8197",
    "Latitude": "34.35815",
    "Longitude": "-86.2947"
  },
  {
    "City": "Hackleburg",
    "State": "AL",
    "Population": "1516",
    "Latitude": "34.27732",
    "Longitude": "-87.82864"
  },
  {
    "City": "Haleyville",
    "State": "AL",
    "Population": "4173",
    "Latitude": "34.22649",
    "Longitude": "-87.62141"
  },
  {
    "City": "Hamilton",
    "State": "AL",
    "Population": "6885",
    "Latitude": "34.14232",
    "Longitude": "-87.98864"
  },
  {
    "City": "Hanceville",
    "State": "AL",
    "Population": "2982",
    "Latitude": "34.06065",
    "Longitude": "-86.7675"
  },
  {
    "City": "Harpersville",
    "State": "AL",
    "Population": "1637",
    "Latitude": "33.344",
    "Longitude": "-86.43804"
  },
  {
    "City": "Hartford",
    "State": "AL",
    "Population": "2624",
    "Latitude": "31.1024",
    "Longitude": "-85.69688"
  },
  {
    "City": "Hartselle",
    "State": "AL",
    "Population": "14255",
    "Latitude": "34.44343",
    "Longitude": "-86.93528"
  },
  {
    "City": "Harvest",
    "State": "AL",
    "Population": "5281",
    "Latitude": "34.85564",
    "Longitude": "-86.75083"
  },
  {
    "City": "Hayneville",
    "State": "AL",
    "Population": "932",
    "Latitude": "32.18403",
    "Longitude": "-86.58025"
  },
  {
    "City": "Hazel Green",
    "State": "AL",
    "Population": "3630",
    "Latitude": "34.93231",
    "Longitude": "-86.57194"
  },
  {
    "City": "Headland",
    "State": "AL",
    "Population": "4510",
    "Latitude": "31.35128",
    "Longitude": "-85.34216"
  },
  {
    "City": "Heflin",
    "State": "AL",
    "Population": "3480",
    "Latitude": "33.64899",
    "Longitude": "-85.58746"
  },
  {
    "City": "Helena",
    "State": "AL",
    "Population": "16793",
    "Latitude": "33.29622",
    "Longitude": "-86.8436"
  },
  {
    "City": "Henagar",
    "State": "AL",
    "Population": "2344",
    "Latitude": "34.63508",
    "Longitude": "-85.76719"
  },
  {
    "City": "Hokes Bluff",
    "State": "AL",
    "Population": "4286",
    "Latitude": "33.99815",
    "Longitude": "-85.86636"
  },
  {
    "City": "Holt",
    "State": "AL",
    "Population": "3638",
    "Latitude": "33.23401",
    "Longitude": "-87.48445"
  },
  {
    "City": "Holtville",
    "State": "AL",
    "Population": "4096",
    "Latitude": "32.63624",
    "Longitude": "-86.32664"
  },
  {
    "City": "Homewood",
    "State": "AL",
    "Population": "25167",
    "Latitude": "33.47177",
    "Longitude": "-86.80082"
  },
  {
    "City": "Hoover",
    "State": "AL",
    "Population": "81619",
    "Latitude": "33.40539",
    "Longitude": "-86.81138"
  },
  {
    "City": "Hueytown",
    "State": "AL",
    "Population": "16105",
    "Latitude": "33.45122",
    "Longitude": "-86.99666"
  },
  {
    "City": "Huguley",
    "State": "AL",
    "Population": "2540",
    "Latitude": "32.83457",
    "Longitude": "-85.22966"
  },
  {
    "City": "Huntsville",
    "State": "AL",
    "Population": "180105",
    "Latitude": "34.73037",
    "Longitude": "-86.5861"
  },
  {
    "City": "Indian Springs Village",
    "State": "AL",
    "Population": "2363",
    "Latitude": "33.35539",
    "Longitude": "-86.75443"
  },
  {
    "City": "Inverness",
    "State": "AL",
    "Population": "1621",
    "Latitude": "32.01488",
    "Longitude": "-85.74606"
  },
  {
    "City": "Irondale",
    "State": "AL",
    "Population": "12349",
    "Latitude": "33.53816",
    "Longitude": "-86.70721"
  },
  {
    "City": "Jackson",
    "State": "AL",
    "Population": "5228",
    "Latitude": "31.50905",
    "Longitude": "-87.89444"
  },
  {
    "City": "Jacksonville",
    "State": "AL",
    "Population": "12548",
    "Latitude": "33.81371",
    "Longitude": "-85.76135"
  },
  {
    "City": "Jasper",
    "State": "AL",
    "Population": "14352",
    "Latitude": "33.83122",
    "Longitude": "-87.27751"
  },
  {
    "City": "Jemison",
    "State": "AL",
    "Population": "2585",
    "Latitude": "32.95985",
    "Longitude": "-86.74665"
  },
  {
    "City": "Killen",
    "State": "AL",
    "Population": "1108",
    "Latitude": "34.86286",
    "Longitude": "-87.53753"
  },
  {
    "City": "Kimberly",
    "State": "AL",
    "Population": "2711",
    "Latitude": "33.77344",
    "Longitude": "-86.81388"
  },
  {
    "City": "Kinsey",
    "State": "AL",
    "Population": "2198",
    "Latitude": "31.29906",
    "Longitude": "-85.34438"
  },
  {
    "City": "Ladonia",
    "State": "AL",
    "Population": "3142",
    "Latitude": "32.4682",
    "Longitude": "-85.0791"
  },
  {
    "City": "Lafayette",
    "State": "AL",
    "Population": "3003",
    "Latitude": "32.89985",
    "Longitude": "-85.40106"
  },
  {
    "City": "Lake Purdy",
    "State": "AL",
    "Population": "7857",
    "Latitude": "33.43011",
    "Longitude": "-86.68054"
  },
  {
    "City": "Lake View",
    "State": "AL",
    "Population": "1943",
    "Latitude": "33.28067",
    "Longitude": "-87.1375"
  },
  {
    "City": "Lanett",
    "State": "AL",
    "Population": "6468",
    "Latitude": "32.86874",
    "Longitude": "-85.1905"
  },
  {
    "City": "Leeds",
    "State": "AL",
    "Population": "11773",
    "Latitude": "33.54816",
    "Longitude": "-86.54443"
  },
  {
    "City": "Leesburg",
    "State": "AL",
    "Population": "1027",
    "Latitude": "34.17982",
    "Longitude": "-85.76136"
  },
  {
    "City": "Level Plains",
    "State": "AL",
    "Population": "2085",
    "Latitude": "31.29962",
    "Longitude": "-85.77799"
  },
  {
    "City": "Linden",
    "State": "AL",
    "Population": "2123",
    "Latitude": "32.30625",
    "Longitude": "-87.79807"
  },
  {
    "City": "Lincoln",
    "State": "AL",
    "Population": "6266",
    "Latitude": "33.61316",
    "Longitude": "-86.11831"
  },
  {
    "City": "Lineville",
    "State": "AL",
    "Population": "2395",
    "Latitude": "33.31067",
    "Longitude": "-85.75441"
  },
  {
    "City": "Lipscomb",
    "State": "AL",
    "Population": "2210",
    "Latitude": "33.42566",
    "Longitude": "-86.92666"
  },
  {
    "City": "Littleville",
    "State": "AL",
    "Population": "1011",
    "Latitude": "34.59065",
    "Longitude": "-87.67697"
  },
  {
    "City": "Livingston",
    "State": "AL",
    "Population": "3485",
    "Latitude": "32.5843",
    "Longitude": "-88.18725"
  },
  {
    "City": "Locust Fork",
    "State": "AL",
    "Population": "1186",
    "Latitude": "33.9076",
    "Longitude": "-86.61527"
  },
  {
    "City": "Loxley",
    "State": "AL",
    "Population": "1632",
    "Latitude": "30.61825",
    "Longitude": "-87.75305"
  },
  {
    "City": "Luverne",
    "State": "AL",
    "Population": "2800",
    "Latitude": "31.71655",
    "Longitude": "-86.26385"
  },
  {
    "City": "Madison",
    "State": "AL",
    "Population": "42938",
    "Latitude": "34.69926",
    "Longitude": "-86.74833"
  },
  {
    "City": "Malvern",
    "State": "AL",
    "Population": "1448",
    "Latitude": "31.13934",
    "Longitude": "-85.5191"
  },
  {
    "City": "Marbury",
    "State": "AL",
    "Population": "1418",
    "Latitude": "32.70124",
    "Longitude": "-86.47109"
  },
  {
    "City": "Margaret",
    "State": "AL",
    "Population": "4428",
    "Latitude": "33.68621",
    "Longitude": "-86.47498"
  },
  {
    "City": "Marion",
    "State": "AL",
    "Population": "3686",
    "Latitude": "32.63235",
    "Longitude": "-87.31917"
  },
  {
    "City": "Meadowbrook",
    "State": "AL",
    "Population": "8769",
    "Latitude": "33.40205",
    "Longitude": "-86.69665"
  },
  {
    "City": "Meridianville",
    "State": "AL",
    "Population": "6021",
    "Latitude": "34.85148",
    "Longitude": "-86.57222"
  },
  {
    "City": "Midfield",
    "State": "AL",
    "Population": "5365",
    "Latitude": "33.4615",
    "Longitude": "-86.90888"
  },
  {
    "City": "Midland City",
    "State": "AL",
    "Population": "2344",
    "Latitude": "31.31906",
    "Longitude": "-85.49382"
  },
  {
    "City": "Mignon",
    "State": "AL",
    "Population": "1284",
    "Latitude": "33.18345",
    "Longitude": "-86.26109"
  },
  {
    "City": "Millbrook",
    "State": "AL",
    "Population": "14640",
    "Latitude": "32.47986",
    "Longitude": "-86.36192"
  },
  {
    "City": "Millport",
    "State": "AL",
    "Population": "1049",
    "Latitude": "33.56345",
    "Longitude": "-88.08142"
  },
  {
    "City": "Minor",
    "State": "AL",
    "Population": "1094",
    "Latitude": "33.53733",
    "Longitude": "-86.94055"
  },
  {
    "City": "Mobile",
    "State": "AL",
    "Population": "195111",
    "Latitude": "30.69436",
    "Longitude": "-88.04305"
  },
  {
    "City": "Monroeville",
    "State": "AL",
    "Population": "6519",
    "Latitude": "31.52794",
    "Longitude": "-87.32471"
  },
  {
    "City": "Montevallo",
    "State": "AL",
    "Population": "6323",
    "Latitude": "33.10067",
    "Longitude": "-86.86416"
  },
  {
    "City": "Montgomery",
    "State": "AL",
    "Population": "205764",
    "Latitude": "32.36681",
    "Longitude": "-86.29997"
  },
  {
    "City": "Moody",
    "State": "AL",
    "Population": "11726",
    "Latitude": "33.59094",
    "Longitude": "-86.49082"
  },
  {
    "City": "Moores Mill",
    "State": "AL",
    "Population": "5682",
    "Latitude": "34.84398",
    "Longitude": "-86.51832"
  },
  {
    "City": "Morris",
    "State": "AL",
    "Population": "1859",
    "Latitude": "33.74816",
    "Longitude": "-86.8086"
  },
  {
    "City": "Mosses",
    "State": "AL",
    "Population": "1029",
    "Latitude": "32.17459",
    "Longitude": "-86.67192"
  },
  {
    "City": "Moulton",
    "State": "AL",
    "Population": "3471",
    "Latitude": "34.48121",
    "Longitude": "-87.29335"
  },
  {
    "City": "Moundville",
    "State": "AL",
    "Population": "2427",
    "Latitude": "32.99762",
    "Longitude": "-87.63001"
  },
  {
    "City": "Mount Olive",
    "State": "AL",
    "Population": "4079",
    "Latitude": "33.67094",
    "Longitude": "-86.8561"
  },
  {
    "City": "Mount Vernon",
    "State": "AL",
    "Population": "1574",
    "Latitude": "31.08518",
    "Longitude": "-88.01333"
  },
  {
    "City": "Mountain Brook",
    "State": "AL",
    "Population": "20413",
    "Latitude": "33.50094",
    "Longitude": "-86.75221"
  },
  {
    "City": "Munford",
    "State": "AL",
    "Population": "1292",
    "Latitude": "33.52983",
    "Longitude": "-85.9508"
  },
  {
    "City": "Muscle Shoals",
    "State": "AL",
    "Population": "13146",
    "Latitude": "34.74481",
    "Longitude": "-87.66753"
  },
  {
    "City": "New Brockton",
    "State": "AL",
    "Population": "1146",
    "Latitude": "31.38572",
    "Longitude": "-85.92939"
  },
  {
    "City": "New Hope",
    "State": "AL",
    "Population": "2810",
    "Latitude": "34.53703",
    "Longitude": "-86.39443"
  },
  {
    "City": "New Market",
    "State": "AL",
    "Population": "1597",
    "Latitude": "34.91009",
    "Longitude": "-86.42777"
  },
  {
    "City": "Newton",
    "State": "AL",
    "Population": "1511",
    "Latitude": "31.33517",
    "Longitude": "-85.60521"
  },
  {
    "City": "North Bibb",
    "State": "AL",
    "Population": "1013",
    "Latitude": "33.20401",
    "Longitude": "-87.15305"
  },
  {
    "City": "Northport",
    "State": "AL",
    "Population": "23330",
    "Latitude": "33.22901",
    "Longitude": "-87.57723"
  },
  {
    "City": "Odenville",
    "State": "AL",
    "Population": "3585",
    "Latitude": "33.67732",
    "Longitude": "-86.39665"
  },
  {
    "City": "Ohatchee",
    "State": "AL",
    "Population": "1170",
    "Latitude": "33.78343",
    "Longitude": "-86.00247"
  },
  {
    "City": "Opelika",
    "State": "AL",
    "Population": "26477",
    "Latitude": "32.64541",
    "Longitude": "-85.37828"
  },
  {
    "City": "Oneonta",
    "State": "AL",
    "Population": "6567",
    "Latitude": "33.94815",
    "Longitude": "-86.47276"
  },
  {
    "City": "Opp",
    "State": "AL",
    "Population": "6659",
    "Latitude": "31.28267",
    "Longitude": "-86.25551"
  },
  {
    "City": "Orange Beach",
    "State": "AL",
    "Population": "5441",
    "Latitude": "30.29437",
    "Longitude": "-87.57359"
  },
  {
    "City": "Owens Cross Roads",
    "State": "AL",
    "Population": "1521",
    "Latitude": "34.58815",
    "Longitude": "-86.45888"
  },
  {
    "City": "Oxford",
    "State": "AL",
    "Population": "21348",
    "Latitude": "33.61427",
    "Longitude": "-85.83496"
  },
  {
    "City": "Ozark",
    "State": "AL",
    "Population": "14907",
    "Latitude": "31.45906",
    "Longitude": "-85.64049"
  },
  {
    "City": "Pelham",
    "State": "AL",
    "Population": "21352",
    "Latitude": "33.28567",
    "Longitude": "-86.80999"
  },
  {
    "City": "Pell City",
    "State": "AL",
    "Population": "12695",
    "Latitude": "33.58621",
    "Longitude": "-86.28609"
  },
  {
    "City": "Phenix City",
    "State": "AL",
    "Population": "32822",
    "Latitude": "32.47098",
    "Longitude": "-85.00077"
  },
  {
    "City": "Phil Campbell",
    "State": "AL",
    "Population": "1148",
    "Latitude": "34.35093",
    "Longitude": "-87.70642"
  },
  {
    "City": "Piedmont",
    "State": "AL",
    "Population": "4878",
    "Latitude": "33.92455",
    "Longitude": "-85.61135"
  },
  {
    "City": "Pike Road",
    "State": "AL",
    "Population": "5406",
    "Latitude": "32.28431",
    "Longitude": "-86.10302"
  },
  {
    "City": "Pine Level",
    "State": "AL",
    "Population": "4183",
    "Latitude": "32.58374",
    "Longitude": "-86.46553"
  },
  {
    "City": "Pinson",
    "State": "AL",
    "Population": "7163",
    "Latitude": "33.68899",
    "Longitude": "-86.68332"
  },
  {
    "City": "Pleasant Grove",
    "State": "AL",
    "Population": "10110",
    "Latitude": "33.49094",
    "Longitude": "-86.97027"
  },
  {
    "City": "Point Clear",
    "State": "AL",
    "Population": "2125",
    "Latitude": "30.47408",
    "Longitude": "-87.91916"
  },
  {
    "City": "Prattville",
    "State": "AL",
    "Population": "33960",
    "Latitude": "32.46402",
    "Longitude": "-86.4597"
  },
  {
    "City": "Priceville",
    "State": "AL",
    "Population": "2658",
    "Latitude": "34.52509",
    "Longitude": "-86.89473"
  },
  {
    "City": "Prichard",
    "State": "AL",
    "Population": "22659",
    "Latitude": "30.7388",
    "Longitude": "-88.07889"
  },
  {
    "City": "Ragland",
    "State": "AL",
    "Population": "1639",
    "Latitude": "33.74454",
    "Longitude": "-86.15581"
  },
  {
    "City": "Rainbow City",
    "State": "AL",
    "Population": "9602",
    "Latitude": "33.95482",
    "Longitude": "-86.04192"
  },
  {
    "City": "Rainsville",
    "State": "AL",
    "Population": "4948",
    "Latitude": "34.49425",
    "Longitude": "-85.84775"
  },
  {
    "City": "Red Bay",
    "State": "AL",
    "Population": "3158",
    "Latitude": "34.43982",
    "Longitude": "-88.14087"
  },
  {
    "City": "Reform",
    "State": "AL",
    "Population": "1702",
    "Latitude": "33.37845",
    "Longitude": "-88.0153"
  },
  {
    "City": "Rehobeth",
    "State": "AL",
    "Population": "1297",
    "Latitude": "31.12296",
    "Longitude": "-85.45271"
  },
  {
    "City": "Riverside",
    "State": "AL",
    "Population": "2208",
    "Latitude": "33.60621",
    "Longitude": "-86.20442"
  },
  {
    "City": "Roanoke",
    "State": "AL",
    "Population": "6074",
    "Latitude": "33.15123",
    "Longitude": "-85.37217"
  },
  {
    "City": "Robertsdale",
    "State": "AL",
    "Population": "5276",
    "Latitude": "30.5538",
    "Longitude": "-87.71193"
  },
  {
    "City": "Rock Creek",
    "State": "AL",
    "Population": "1456",
    "Latitude": "33.47705",
    "Longitude": "-87.08027"
  },
  {
    "City": "Rockford",
    "State": "AL",
    "Population": "477",
    "Latitude": "32.88957",
    "Longitude": "-86.21969"
  },
  {
    "City": "Rogersville",
    "State": "AL",
    "Population": "1257",
    "Latitude": "34.82578",
    "Longitude": "-87.29676"
  },
  {
    "City": "Russellville",
    "State": "AL",
    "Population": "9830",
    "Latitude": "34.50787",
    "Longitude": "-87.72864"
  },
  {
    "City": "Saks",
    "State": "AL",
    "Population": "10744",
    "Latitude": "33.69871",
    "Longitude": "-85.83969"
  },
  {
    "City": "Samson",
    "State": "AL",
    "Population": "1940",
    "Latitude": "31.11295",
    "Longitude": "-86.04605"
  },
  {
    "City": "Saraland",
    "State": "AL",
    "Population": "13405",
    "Latitude": "30.82074",
    "Longitude": "-88.07056"
  },
  {
    "City": "Sardis City",
    "State": "AL",
    "Population": "1704",
    "Latitude": "34.17426",
    "Longitude": "-86.12275"
  },
  {
    "City": "Satsuma",
    "State": "AL",
    "Population": "6168",
    "Latitude": "30.85324",
    "Longitude": "-88.05611"
  },
  {
    "City": "Scottsboro",
    "State": "AL",
    "Population": "14770",
    "Latitude": "34.67231",
    "Longitude": "-86.03415"
  },
  {
    "City": "Selma",
    "State": "AL",
    "Population": "20756",
    "Latitude": "32.40736",
    "Longitude": "-87.0211"
  },
  {
    "City": "Sheffield",
    "State": "AL",
    "Population": "9039",
    "Latitude": "34.76509",
    "Longitude": "-87.69864"
  },
  {
    "City": "Shelby",
    "State": "AL",
    "Population": "1044",
    "Latitude": "33.1104",
    "Longitude": "-86.58415"
  },
  {
    "City": "Slocomb",
    "State": "AL",
    "Population": "1980",
    "Latitude": "31.10823",
    "Longitude": "-85.59438"
  },
  {
    "City": "Smiths Station",
    "State": "AL",
    "Population": "4926",
    "Latitude": "32.54014",
    "Longitude": "-85.09855"
  },
  {
    "City": "Smoke Rise",
    "State": "AL",
    "Population": "1825",
    "Latitude": "33.89177",
    "Longitude": "-86.82027"
  },
  {
    "City": "Southside",
    "State": "AL",
    "Population": "8412",
    "Latitude": "33.92454",
    "Longitude": "-86.02247"
  },
  {
    "City": "Spanish Fort",
    "State": "AL",
    "Population": "6798",
    "Latitude": "30.67491",
    "Longitude": "-87.91527"
  },
  {
    "City": "Springville",
    "State": "AL",
    "Population": "4080",
    "Latitude": "33.7751",
    "Longitude": "-86.47165"
  },
  {
    "City": "Steele",
    "State": "AL",
    "Population": "1043",
    "Latitude": "33.93982",
    "Longitude": "-86.20164"
  },
  {
    "City": "Stevenson",
    "State": "AL",
    "Population": "2046",
    "Latitude": "34.86869",
    "Longitude": "-85.83942"
  },
  {
    "City": "Stewartville",
    "State": "AL",
    "Population": "1767",
    "Latitude": "33.07929",
    "Longitude": "-86.24442"
  },
  {
    "City": "Sulligent",
    "State": "AL",
    "Population": "1927",
    "Latitude": "33.90177",
    "Longitude": "-88.13448"
  },
  {
    "City": "Sumiton",
    "State": "AL",
    "Population": "2520",
    "Latitude": "33.75566",
    "Longitude": "-87.05"
  },
  {
    "City": "Sylacauga",
    "State": "AL",
    "Population": "12749",
    "Latitude": "33.17317",
    "Longitude": "-86.25164"
  },
  {
    "City": "Sylvan Springs",
    "State": "AL",
    "Population": "1542",
    "Latitude": "33.51566",
    "Longitude": "-87.01499"
  },
  {
    "City": "Sylvania",
    "State": "AL",
    "Population": "1837",
    "Latitude": "34.56231",
    "Longitude": "-85.81247"
  },
  {
    "City": "Talladega",
    "State": "AL",
    "Population": "15676",
    "Latitude": "33.43594",
    "Longitude": "-86.1058"
  },
  {
    "City": "Tallassee",
    "State": "AL",
    "Population": "4819",
    "Latitude": "32.53597",
    "Longitude": "-85.89329"
  },
  {
    "City": "Tarrant",
    "State": "AL",
    "Population": "6397",
    "Latitude": "33.58344",
    "Longitude": "-86.77277"
  },
  {
    "City": "Taylor",
    "State": "AL",
    "Population": "2375",
    "Latitude": "31.1649",
    "Longitude": "-85.46827"
  },
  {
    "City": "Taylor",
    "State": "AL",
    "Population": "1946",
    "Latitude": "31.97543",
    "Longitude": "-86.2333"
  },
  {
    "City": "Theodore",
    "State": "AL",
    "Population": "6130",
    "Latitude": "30.54769",
    "Longitude": "-88.17528"
  },
  {
    "City": "Thomasville",
    "State": "AL",
    "Population": "4209",
    "Latitude": "31.91349",
    "Longitude": "-87.73584"
  },
  {
    "City": "Thorsby",
    "State": "AL",
    "Population": "1980",
    "Latitude": "32.91568",
    "Longitude": "-86.71582"
  },
  {
    "City": "Tillmans Corner",
    "State": "AL",
    "Population": "17398",
    "Latitude": "30.59019",
    "Longitude": "-88.17084"
  },
  {
    "City": "Town Creek",
    "State": "AL",
    "Population": "1100",
    "Latitude": "34.6812",
    "Longitude": "-87.40613"
  },
  {
    "City": "Trinity",
    "State": "AL",
    "Population": "2095",
    "Latitude": "34.60676",
    "Longitude": "-87.08835"
  },
  {
    "City": "Troy",
    "State": "AL",
    "Population": "18033",
    "Latitude": "31.80877",
    "Longitude": "-85.96995"
  },
  {
    "City": "Trussville",
    "State": "AL",
    "Population": "19933",
    "Latitude": "33.61983",
    "Longitude": "-86.60888"
  },
  {
    "City": "Tuscaloosa",
    "State": "AL",
    "Population": "90468",
    "Latitude": "33.20984",
    "Longitude": "-87.56917"
  },
  {
    "City": "Tuscumbia",
    "State": "AL",
    "Population": "8423",
    "Latitude": "34.7312",
    "Longitude": "-87.70253"
  },
  {
    "City": "Tuskegee",
    "State": "AL",
    "Population": "9865",
    "Latitude": "32.42403",
    "Longitude": "-85.69162"
  },
  {
    "City": "Union Springs",
    "State": "AL",
    "Population": "3980",
    "Latitude": "32.14432",
    "Longitude": "-85.71495"
  },
  {
    "City": "Uniontown",
    "State": "AL",
    "Population": "1775",
    "Latitude": "32.44958",
    "Longitude": "-87.51417"
  },
  {
    "City": "Valley",
    "State": "AL",
    "Population": "9524",
    "Latitude": "32.81874",
    "Longitude": "-85.17939"
  },
  {
    "City": "Valley Grande",
    "State": "AL",
    "Population": "4020",
    "Latitude": "32.50902",
    "Longitude": "-86.98749"
  },
  {
    "City": "Vandiver",
    "State": "AL",
    "Population": "1135",
    "Latitude": "33.47066",
    "Longitude": "-86.51332"
  },
  {
    "City": "Vance",
    "State": "AL",
    "Population": "1529",
    "Latitude": "33.17428",
    "Longitude": "-87.23361"
  },
  {
    "City": "Vernon",
    "State": "AL",
    "Population": "2000",
    "Latitude": "33.75705",
    "Longitude": "-88.10892"
  },
  {
    "City": "Vestavia Hills",
    "State": "AL",
    "Population": "34033",
    "Latitude": "33.44872",
    "Longitude": "-86.78777"
  },
  {
    "City": "Vincent",
    "State": "AL",
    "Population": "1988",
    "Latitude": "33.38455",
    "Longitude": "-86.41192"
  },
  {
    "City": "Warrior",
    "State": "AL",
    "Population": "3176",
    "Latitude": "33.81427",
    "Longitude": "-86.80944"
  },
  {
    "City": "Weaver",
    "State": "AL",
    "Population": "3038",
    "Latitude": "33.75205",
    "Longitude": "-85.81135"
  },
  {
    "City": "Webb",
    "State": "AL",
    "Population": "1430",
    "Latitude": "31.26045",
    "Longitude": "-85.27327"
  },
  {
    "City": "Wedowee",
    "State": "AL",
    "Population": "823",
    "Latitude": "33.309",
    "Longitude": "-85.48467"
  },
  {
    "City": "West Blocton",
    "State": "AL",
    "Population": "1240",
    "Latitude": "33.11817",
    "Longitude": "-87.125"
  },
  {
    "City": "Westover",
    "State": "AL",
    "Population": "1275",
    "Latitude": "33.34955",
    "Longitude": "-86.53582"
  },
  {
    "City": "Wetumpka",
    "State": "AL",
    "Population": "6528",
    "Latitude": "32.54374",
    "Longitude": "-86.21191"
  },
  {
    "City": "Whitesboro",
    "State": "AL",
    "Population": "2138",
    "Latitude": "34.16343",
    "Longitude": "-86.06942"
  },
  {
    "City": "Wilsonville",
    "State": "AL",
    "Population": "1827",
    "Latitude": "33.23428",
    "Longitude": "-86.48359"
  },
  {
    "City": "Winfield",
    "State": "AL",
    "Population": "4717",
    "Latitude": "33.92899",
    "Longitude": "-87.81725"
  },
  {
    "City": "Woodstock",
    "State": "AL",
    "Population": "1428",
    "Latitude": "33.20678",
    "Longitude": "-87.15"
  },
  {
    "City": "York",
    "State": "AL",
    "Population": "2538",
    "Latitude": "32.48625",
    "Longitude": "-88.29642"
  },
  {
    "City": "Alexander",
    "State": "AR",
    "Population": "2901",
    "Latitude": "34.62954",
    "Longitude": "-92.44127"
  },
  {
    "City": "Alma",
    "State": "AR",
    "Population": "5419",
    "Latitude": "35.47787",
    "Longitude": "-94.22188"
  },
  {
    "City": "Arkadelphia",
    "State": "AR",
    "Population": "10714",
    "Latitude": "34.12093",
    "Longitude": "-93.05378"
  },
  {
    "City": "Arkansas City",
    "State": "AR",
    "Population": "366",
    "Latitude": "33.60872",
    "Longitude": "-91.20678"
  },
  {
    "City": "Ash Flat",
    "State": "AR",
    "Population": "1082",
    "Latitude": "36.22396",
    "Longitude": "-91.60848"
  },
  {
    "City": "Ashdown",
    "State": "AR",
    "Population": "4723",
    "Latitude": "33.67429",
    "Longitude": "-94.13131"
  },
  {
    "City": "Atkins",
    "State": "AR",
    "Population": "3016",
    "Latitude": "35.24647",
    "Longitude": "-92.93656"
  },
  {
    "City": "Augusta",
    "State": "AR",
    "Population": "2199",
    "Latitude": "35.28231",
    "Longitude": "-91.36541"
  },
  {
    "City": "Austin",
    "State": "AR",
    "Population": "2038",
    "Latitude": "34.99842",
    "Longitude": "-91.98376"
  },
  {
    "City": "Bald Knob",
    "State": "AR",
    "Population": "2897",
    "Latitude": "35.30981",
    "Longitude": "-91.56791"
  },
  {
    "City": "Barling",
    "State": "AR",
    "Population": "4649",
    "Latitude": "35.32565",
    "Longitude": "-94.3016"
  },
  {
    "City": "Batesville",
    "State": "AR",
    "Population": "10248",
    "Latitude": "35.7698",
    "Longitude": "-91.64097"
  },
  {
    "City": "Bay",
    "State": "AR",
    "Population": "1801",
    "Latitude": "35.7423",
    "Longitude": "-90.56233"
  },
  {
    "City": "Beebe",
    "State": "AR",
    "Population": "7315",
    "Latitude": "35.07064",
    "Longitude": "-91.87959"
  },
  {
    "City": "Bella Vista",
    "State": "AR",
    "Population": "26461",
    "Latitude": "36.4807",
    "Longitude": "-94.27134"
  },
  {
    "City": "Benton",
    "State": "AR",
    "Population": "30681",
    "Latitude": "34.56454",
    "Longitude": "-92.58683"
  },
  {
    "City": "Bentonville",
    "State": "AR",
    "Population": "35301",
    "Latitude": "36.37285",
    "Longitude": "-94.20882"
  },
  {
    "City": "Berryville",
    "State": "AR",
    "Population": "5356",
    "Latitude": "36.36479",
    "Longitude": "-93.56797"
  },
  {
    "City": "Bethel Heights",
    "State": "AR",
    "Population": "2372",
    "Latitude": "36.21424",
    "Longitude": "-94.12937"
  },
  {
    "City": "Blytheville",
    "State": "AR",
    "Population": "15620",
    "Latitude": "35.9273",
    "Longitude": "-89.91898"
  },
  {
    "City": "Bono",
    "State": "AR",
    "Population": "2131",
    "Latitude": "35.90868",
    "Longitude": "-90.80262"
  },
  {
    "City": "Booneville",
    "State": "AR",
    "Population": "3990",
    "Latitude": "35.14009",
    "Longitude": "-93.92159"
  },
  {
    "City": "Brinkley",
    "State": "AR",
    "Population": "3188",
    "Latitude": "34.88787",
    "Longitude": "-91.19457"
  },
  {
    "City": "Brookland",
    "State": "AR",
    "Population": "1642",
    "Latitude": "35.90007",
    "Longitude": "-90.58205"
  },
  {
    "City": "Bryant",
    "State": "AR",
    "Population": "16688",
    "Latitude": "34.59593",
    "Longitude": "-92.48905"
  },
  {
    "City": "Bull Shoals",
    "State": "AR",
    "Population": "1950",
    "Latitude": "36.38396",
    "Longitude": "-92.58155"
  },
  {
    "City": "Cabot",
    "State": "AR",
    "Population": "23776",
    "Latitude": "34.97453",
    "Longitude": "-92.01653"
  },
  {
    "City": "Calico Rock",
    "State": "AR",
    "Population": "1545",
    "Latitude": "36.11951",
    "Longitude": "-92.13599"
  },
  {
    "City": "Camden",
    "State": "AR",
    "Population": "12183",
    "Latitude": "33.58456",
    "Longitude": "-92.83433"
  },
  {
    "City": "Caraway",
    "State": "AR",
    "Population": "1279",
    "Latitude": "35.75813",
    "Longitude": "-90.32232"
  },
  {
    "City": "Carlisle",
    "State": "AR",
    "Population": "2214",
    "Latitude": "34.78315",
    "Longitude": "-91.74652"
  },
  {
    "City": "Cave City",
    "State": "AR",
    "Population": "1904",
    "Latitude": "35.94174",
    "Longitude": "-91.54847"
  },
  {
    "City": "Cave Springs",
    "State": "AR",
    "Population": "1729",
    "Latitude": "36.26341",
    "Longitude": "-94.23187"
  },
  {
    "City": "Cedarville",
    "State": "AR",
    "Population": "1394",
    "Latitude": "35.56981",
    "Longitude": "-94.36688"
  },
  {
    "City": "Centerton",
    "State": "AR",
    "Population": "9515",
    "Latitude": "36.3598",
    "Longitude": "-94.28521"
  },
  {
    "City": "Charleston",
    "State": "AR",
    "Population": "2494",
    "Latitude": "35.29704",
    "Longitude": "-94.03632"
  },
  {
    "City": "Cherokee Village",
    "State": "AR",
    "Population": "4671",
    "Latitude": "36.29784",
    "Longitude": "-91.51597"
  },
  {
    "City": "Clarendon",
    "State": "AR",
    "Population": "1664",
    "Latitude": "34.69315",
    "Longitude": "-91.31374"
  },
  {
    "City": "Clarksville",
    "State": "AR",
    "Population": "9178",
    "Latitude": "35.47147",
    "Longitude": "-93.46657"
  },
  {
    "City": "Clinton",
    "State": "AR",
    "Population": "2602",
    "Latitude": "35.59147",
    "Longitude": "-92.46044"
  },
  {
    "City": "Coal Hill",
    "State": "AR",
    "Population": "1012",
    "Latitude": "35.43731",
    "Longitude": "-93.67297"
  },
  {
    "City": "Conway",
    "State": "AR",
    "Population": "58908",
    "Latitude": "35.0887",
    "Longitude": "-92.4421"
  },
  {
    "City": "Corning",
    "State": "AR",
    "Population": "3377",
    "Latitude": "36.40784",
    "Longitude": "-90.57983"
  },
  {
    "City": "Crossett",
    "State": "AR",
    "Population": "5507",
    "Latitude": "33.12818",
    "Longitude": "-91.96124"
  },
  {
    "City": "Danville",
    "State": "AR",
    "Population": "2409",
    "Latitude": "35.05398",
    "Longitude": "-93.39352"
  },
  {
    "City": "Dardanelle",
    "State": "AR",
    "Population": "4745",
    "Latitude": "35.22314",
    "Longitude": "-93.15795"
  },
  {
    "City": "De Queen",
    "State": "AR",
    "Population": "6594",
    "Latitude": "34.03789",
    "Longitude": "-94.34132"
  },
  {
    "City": "De Witt",
    "State": "AR",
    "Population": "3292",
    "Latitude": "34.29288",
    "Longitude": "-91.3379"
  },
  {
    "City": "Decatur",
    "State": "AR",
    "Population": "1699",
    "Latitude": "36.33591",
    "Longitude": "-94.46077"
  },
  {
    "City": "Dermott",
    "State": "AR",
    "Population": "2316",
    "Latitude": "33.52539",
    "Longitude": "-91.43595"
  },
  {
    "City": "Des Arc",
    "State": "AR",
    "Population": "1717",
    "Latitude": "34.97704",
    "Longitude": "-91.49513"
  },
  {
    "City": "Diaz",
    "State": "AR",
    "Population": "1318",
    "Latitude": "35.63841",
    "Longitude": "-91.26513"
  },
  {
    "City": "Dierks",
    "State": "AR",
    "Population": "1133",
    "Latitude": "34.11928",
    "Longitude": "-94.01658"
  },
  {
    "City": "Dover",
    "State": "AR",
    "Population": "1378",
    "Latitude": "35.40147",
    "Longitude": "-93.11434"
  },
  {
    "City": "Dumas",
    "State": "AR",
    "Population": "4706",
    "Latitude": "33.88705",
    "Longitude": "-91.49179"
  },
  {
    "City": "Earle",
    "State": "AR",
    "Population": "2414",
    "Latitude": "35.27509",
    "Longitude": "-90.46677"
  },
  {
    "City": "East End",
    "State": "AR",
    "Population": "6998",
    "Latitude": "34.55065",
    "Longitude": "-92.34099"
  },
  {
    "City": "El Dorado",
    "State": "AR",
    "Population": "18884",
    "Latitude": "33.20763",
    "Longitude": "-92.66627"
  },
  {
    "City": "Elkins",
    "State": "AR",
    "Population": "2648",
    "Latitude": "36.00147",
    "Longitude": "-94.00825"
  },
  {
    "City": "Elm Springs",
    "State": "AR",
    "Population": "1535",
    "Latitude": "36.20619",
    "Longitude": "-94.23437"
  },
  {
    "City": "England",
    "State": "AR",
    "Population": "2825",
    "Latitude": "34.54426",
    "Longitude": "-91.96903"
  },
  {
    "City": "Eudora",
    "State": "AR",
    "Population": "2269",
    "Latitude": "33.10957",
    "Longitude": "-91.26206"
  },
  {
    "City": "Eureka Springs",
    "State": "AR",
    "Population": "2073",
    "Latitude": "36.40118",
    "Longitude": "-93.73797"
  },
  {
    "City": "Fairfield Bay",
    "State": "AR",
    "Population": "2338",
    "Latitude": "35.59424",
    "Longitude": "-92.27793"
  },
  {
    "City": "Farmington",
    "State": "AR",
    "Population": "5974",
    "Latitude": "36.04202",
    "Longitude": "-94.24715"
  },
  {
    "City": "Fayetteville",
    "State": "AR",
    "Population": "73580",
    "Latitude": "36.06258",
    "Longitude": "-94.15743"
  },
  {
    "City": "Flippin",
    "State": "AR",
    "Population": "1355",
    "Latitude": "36.27896",
    "Longitude": "-92.59711"
  },
  {
    "City": "Foreman",
    "State": "AR",
    "Population": "1011",
    "Latitude": "33.72178",
    "Longitude": "-94.39687"
  },
  {
    "City": "Fordyce",
    "State": "AR",
    "Population": "4300",
    "Latitude": "33.81372",
    "Longitude": "-92.41293"
  },
  {
    "City": "Forrest City",
    "State": "AR",
    "Population": "15371",
    "Latitude": "35.00815",
    "Longitude": "-90.78983"
  },
  {
    "City": "Fort Smith",
    "State": "AR",
    "Population": "86209",
    "Latitude": "35.38592",
    "Longitude": "-94.39855"
  },
  {
    "City": "Gassville",
    "State": "AR",
    "Population": "2078",
    "Latitude": "36.28312",
    "Longitude": "-92.49405"
  },
  {
    "City": "Gentry",
    "State": "AR",
    "Population": "3158",
    "Latitude": "36.26758",
    "Longitude": "-94.48466"
  },
  {
    "City": "Gibson",
    "State": "AR",
    "Population": "3543",
    "Latitude": "34.88426",
    "Longitude": "-92.2357"
  },
  {
    "City": "Glenwood",
    "State": "AR",
    "Population": "2228",
    "Latitude": "34.32677",
    "Longitude": "-93.55074"
  },
  {
    "City": "Gosnell",
    "State": "AR",
    "Population": "3548",
    "Latitude": "35.95979",
    "Longitude": "-89.97203"
  },
  {
    "City": "Goshen",
    "State": "AR",
    "Population": "1071",
    "Latitude": "36.10119",
    "Longitude": "-93.99131"
  },
  {
    "City": "Gravel Ridge",
    "State": "AR",
    "Population": "2902",
    "Latitude": "34.86842",
    "Longitude": "-92.1907"
  },
  {
    "City": "Gravette",
    "State": "AR",
    "Population": "2325",
    "Latitude": "36.42202",
    "Longitude": "-94.45355"
  },
  {
    "City": "Green Forest",
    "State": "AR",
    "Population": "2761",
    "Latitude": "36.33535",
    "Longitude": "-93.43602"
  },
  {
    "City": "Greenbrier",
    "State": "AR",
    "Population": "4706",
    "Latitude": "35.23397",
    "Longitude": "-92.38765"
  },
  {
    "City": "Greenland",
    "State": "AR",
    "Population": "1259",
    "Latitude": "35.99425",
    "Longitude": "-94.1752"
  },
  {
    "City": "Greenwood",
    "State": "AR",
    "Population": "8952",
    "Latitude": "35.21565",
    "Longitude": "-94.25577"
  },
  {
    "City": "Gurdon",
    "State": "AR",
    "Population": "2212",
    "Latitude": "33.92094",
    "Longitude": "-93.15406"
  },
  {
    "City": "Hamburg",
    "State": "AR",
    "Population": "2857",
    "Latitude": "33.22818",
    "Longitude": "-91.79763"
  },
  {
    "City": "Hampton",
    "State": "AR",
    "Population": "1324",
    "Latitude": "33.53789",
    "Longitude": "-92.46988"
  },
  {
    "City": "Harrisburg",
    "State": "AR",
    "Population": "2288",
    "Latitude": "35.56425",
    "Longitude": "-90.71678"
  },
  {
    "City": "Harrison",
    "State": "AR",
    "Population": "12943",
    "Latitude": "36.22979",
    "Longitude": "-93.10768"
  },
  {
    "City": "Haskell",
    "State": "AR",
    "Population": "3990",
    "Latitude": "34.50148",
    "Longitude": "-92.63655"
  },
  {
    "City": "Hazen",
    "State": "AR",
    "Population": "1468",
    "Latitude": "34.78093",
    "Longitude": "-91.58097"
  },
  {
    "City": "Heber Springs",
    "State": "AR",
    "Population": "7165",
    "Latitude": "35.49147",
    "Longitude": "-92.03126"
  },
  {
    "City": "Helena",
    "State": "AR",
    "Population": "5548",
    "Latitude": "34.52955",
    "Longitude": "-90.59177"
  },
  {
    "City": "Highland",
    "State": "AR",
    "Population": "1045",
    "Latitude": "36.2759",
    "Longitude": "-91.52403"
  },
  {
    "City": "Holiday Island",
    "State": "AR",
    "Population": "2373",
    "Latitude": "36.48535",
    "Longitude": "-93.73214"
  },
  {
    "City": "Hope",
    "State": "AR",
    "Population": "10095",
    "Latitude": "33.66706",
    "Longitude": "-93.59157"
  },
  {
    "City": "Horatio",
    "State": "AR",
    "Population": "1044",
    "Latitude": "33.93845",
    "Longitude": "-94.35715"
  },
  {
    "City": "Horseshoe Bend",
    "State": "AR",
    "Population": "2184",
    "Latitude": "36.22923",
    "Longitude": "-91.76431"
  },
  {
    "City": "Hot Springs",
    "State": "AR",
    "Population": "35193",
    "Latitude": "34.5037",
    "Longitude": "-93.05518"
  },
  {
    "City": "Hot Springs Village",
    "State": "AR",
    "Population": "12807",
    "Latitude": "34.67204",
    "Longitude": "-92.99879"
  },
  {
    "City": "Hoxie",
    "State": "AR",
    "Population": "2780",
    "Latitude": "36.05035",
    "Longitude": "-90.97512"
  },
  {
    "City": "Hughes",
    "State": "AR",
    "Population": "1441",
    "Latitude": "34.94926",
    "Longitude": "-90.47149"
  },
  {
    "City": "Huntsville",
    "State": "AR",
    "Population": "2346",
    "Latitude": "36.08619",
    "Longitude": "-93.7413"
  },
  {
    "City": "Jacksonville",
    "State": "AR",
    "Population": "28364",
    "Latitude": "34.8662",
    "Longitude": "-92.11015"
  },
  {
    "City": "Jasper",
    "State": "AR",
    "Population": "466",
    "Latitude": "36.00813",
    "Longitude": "-93.18657"
  },
  {
    "City": "Johnson",
    "State": "AR",
    "Population": "3354",
    "Latitude": "36.13286",
    "Longitude": "-94.16548"
  },
  {
    "City": "Jonesboro",
    "State": "AR",
    "Population": "67263",
    "Latitude": "35.8423",
    "Longitude": "-90.70428"
  },
  {
    "City": "Judsonia",
    "State": "AR",
    "Population": "2019",
    "Latitude": "35.27009",
    "Longitude": "-91.63986"
  },
  {
    "City": "Kensett",
    "State": "AR",
    "Population": "1648",
    "Latitude": "35.23175",
    "Longitude": "-91.66764"
  },
  {
    "City": "Lake City",
    "State": "AR",
    "Population": "2082",
    "Latitude": "35.81619",
    "Longitude": "-90.43427"
  },
  {
    "City": "Lake Hamilton",
    "State": "AR",
    "Population": "2135",
    "Latitude": "34.42453",
    "Longitude": "-93.09518"
  },
  {
    "City": "Lake Village",
    "State": "AR",
    "Population": "2575",
    "Latitude": "33.32873",
    "Longitude": "-91.28178"
  },
  {
    "City": "Lamar",
    "State": "AR",
    "Population": "1605",
    "Latitude": "35.44064",
    "Longitude": "-93.38796"
  },
  {
    "City": "Landmark",
    "State": "AR",
    "Population": "3555",
    "Latitude": "34.6112",
    "Longitude": "-92.3196"
  },
  {
    "City": "Lavaca",
    "State": "AR",
    "Population": "2289",
    "Latitude": "35.3362",
    "Longitude": "-94.17326"
  },
  {
    "City": "Leachville",
    "State": "AR",
    "Population": "1993",
    "Latitude": "35.93591",
    "Longitude": "-90.25788"
  },
  {
    "City": "Lepanto",
    "State": "AR",
    "Population": "1893",
    "Latitude": "35.61119",
    "Longitude": "-90.32982"
  },
  {
    "City": "Lewisville",
    "State": "AR",
    "Population": "1280",
    "Latitude": "33.35846",
    "Longitude": "-93.57768"
  },
  {
    "City": "Lincoln",
    "State": "AR",
    "Population": "2249",
    "Latitude": "35.94953",
    "Longitude": "-94.42355"
  },
  {
    "City": "Little Flock",
    "State": "AR",
    "Population": "2585",
    "Latitude": "36.38591",
    "Longitude": "-94.1352"
  },
  {
    "City": "Little Rock",
    "State": "AR",
    "Population": "193524",
    "Latitude": "34.74648",
    "Longitude": "-92.28959"
  },
  {
    "City": "London",
    "State": "AR",
    "Population": "1039",
    "Latitude": "35.32897",
    "Longitude": "-93.25296"
  },
  {
    "City": "Lonoke",
    "State": "AR",
    "Population": "4245",
    "Latitude": "34.78398",
    "Longitude": "-91.89986"
  },
  {
    "City": "Lowell",
    "State": "AR",
    "Population": "7327",
    "Latitude": "36.25535",
    "Longitude": "-94.13076"
  },
  {
    "City": "Luxora",
    "State": "AR",
    "Population": "1178",
    "Latitude": "35.75619",
    "Longitude": "-89.92814"
  },
  {
    "City": "Magnolia",
    "State": "AR",
    "Population": "11577",
    "Latitude": "33.26707",
    "Longitude": "-93.23933"
  },
  {
    "City": "Malvern",
    "State": "AR",
    "Population": "10318",
    "Latitude": "34.36231",
    "Longitude": "-92.81295"
  },
  {
    "City": "Manila",
    "State": "AR",
    "Population": "3342",
    "Latitude": "35.88007",
    "Longitude": "-90.16704"
  },
  {
    "City": "Mansfield",
    "State": "AR",
    "Population": "1139",
    "Latitude": "35.05954",
    "Longitude": "-94.25271"
  },
  {
    "City": "Marianna",
    "State": "AR",
    "Population": "4115",
    "Latitude": "34.77371",
    "Longitude": "-90.75761"
  },
  {
    "City": "Marion",
    "State": "AR",
    "Population": "12345",
    "Latitude": "35.21453",
    "Longitude": "-90.19648"
  },
  {
    "City": "Marked Tree",
    "State": "AR",
    "Population": "2566",
    "Latitude": "35.53286",
    "Longitude": "-90.42066"
  },
  {
    "City": "Marmaduke",
    "State": "AR",
    "Population": "1111",
    "Latitude": "36.18701",
    "Longitude": "-90.38316"
  },
  {
    "City": "Marshall",
    "State": "AR",
    "Population": "1355",
    "Latitude": "35.90896",
    "Longitude": "-92.63127"
  },
  {
    "City": "Marvell",
    "State": "AR",
    "Population": "1186",
    "Latitude": "34.55566",
    "Longitude": "-90.91289"
  },
  {
    "City": "Maumelle",
    "State": "AR",
    "Population": "17163",
    "Latitude": "34.86676",
    "Longitude": "-92.40432"
  },
  {
    "City": "Mayflower",
    "State": "AR",
    "Population": "2234",
    "Latitude": "34.95703",
    "Longitude": "-92.42738"
  },
  {
    "City": "McAlmont",
    "State": "AR",
    "Population": "1873",
    "Latitude": "34.80842",
    "Longitude": "-92.18181"
  },
  {
    "City": "McCrory",
    "State": "AR",
    "Population": "1729",
    "Latitude": "35.2562",
    "Longitude": "-91.20012"
  },
  {
    "City": "McGehee",
    "State": "AR",
    "Population": "4219",
    "Latitude": "33.629",
    "Longitude": "-91.39956"
  },
  {
    "City": "Melbourne",
    "State": "AR",
    "Population": "1848",
    "Latitude": "36.05951",
    "Longitude": "-91.90848"
  },
  {
    "City": "Mena",
    "State": "AR",
    "Population": "5737",
    "Latitude": "34.58622",
    "Longitude": "-94.23966"
  },
  {
    "City": "Midway",
    "State": "AR",
    "Population": "1084",
    "Latitude": "36.38534",
    "Longitude": "-92.46183"
  },
  {
    "City": "Mineral Springs",
    "State": "AR",
    "Population": "1208",
    "Latitude": "33.87512",
    "Longitude": "-93.9138"
  },
  {
    "City": "Monette",
    "State": "AR",
    "Population": "1501",
    "Latitude": "35.89063",
    "Longitude": "-90.34427"
  },
  {
    "City": "Monticello",
    "State": "AR",
    "Population": "9467",
    "Latitude": "33.629",
    "Longitude": "-91.79096"
  },
  {
    "City": "Morrilton",
    "State": "AR",
    "Population": "6767",
    "Latitude": "35.15092",
    "Longitude": "-92.74405"
  },
  {
    "City": "Mount Ida",
    "State": "AR",
    "Population": "1076",
    "Latitude": "34.55676",
    "Longitude": "-93.63408"
  },
  {
    "City": "Mountain View",
    "State": "AR",
    "Population": "2748",
    "Latitude": "35.86841",
    "Longitude": "-92.11765"
  },
  {
    "City": "Mountain Home",
    "State": "AR",
    "Population": "12448",
    "Latitude": "36.33534",
    "Longitude": "-92.38516"
  },
  {
    "City": "Mulberry",
    "State": "AR",
    "Population": "1655",
    "Latitude": "35.50064",
    "Longitude": "-94.05159"
  },
  {
    "City": "Murfreesboro",
    "State": "AR",
    "Population": "1641",
    "Latitude": "34.06233",
    "Longitude": "-93.6899"
  },
  {
    "City": "Nashville",
    "State": "AR",
    "Population": "4627",
    "Latitude": "33.94567",
    "Longitude": "-93.84713"
  },
  {
    "City": "Newark",
    "State": "AR",
    "Population": "1176",
    "Latitude": "35.70174",
    "Longitude": "-91.44152"
  },
  {
    "City": "Newport",
    "State": "AR",
    "Population": "7879",
    "Latitude": "35.6048",
    "Longitude": "-91.2818"
  },
  {
    "City": "North Crossett",
    "State": "AR",
    "Population": "3119",
    "Latitude": "33.16568",
    "Longitude": "-91.94152"
  },
  {
    "City": "North Little Rock",
    "State": "AR",
    "Population": "62304",
    "Latitude": "34.76954",
    "Longitude": "-92.26709"
  },
  {
    "City": "Ola",
    "State": "AR",
    "Population": "1281",
    "Latitude": "35.03231",
    "Longitude": "-93.22323"
  },
  {
    "City": "Osceola",
    "State": "AR",
    "Population": "7757",
    "Latitude": "35.70508",
    "Longitude": "-89.96953"
  },
  {
    "City": "Ozark",
    "State": "AR",
    "Population": "3684",
    "Latitude": "35.48703",
    "Longitude": "-93.8277"
  },
  {
    "City": "Paragould",
    "State": "AR",
    "Population": "26113",
    "Latitude": "36.0584",
    "Longitude": "-90.49733"
  },
  {
    "City": "Paris",
    "State": "AR",
    "Population": "3532",
    "Latitude": "35.29203",
    "Longitude": "-93.72992"
  },
  {
    "City": "Parkin",
    "State": "AR",
    "Population": "1105",
    "Latitude": "35.26342",
    "Longitude": "-90.57122"
  },
  {
    "City": "Pea Ridge",
    "State": "AR",
    "Population": "2879",
    "Latitude": "33.92066",
    "Longitude": "-91.33679"
  },
  {
    "City": "Pea Ridge",
    "State": "AR",
    "Population": "4794",
    "Latitude": "36.45396",
    "Longitude": "-94.1152"
  },
  {
    "City": "Perryville",
    "State": "AR",
    "Population": "1460",
    "Latitude": "35.00481",
    "Longitude": "-92.80267"
  },
  {
    "City": "Piggott",
    "State": "AR",
    "Population": "3849",
    "Latitude": "36.38284",
    "Longitude": "-90.19065"
  },
  {
    "City": "Pine Bluff",
    "State": "AR",
    "Population": "49083",
    "Latitude": "34.22843",
    "Longitude": "-92.0032"
  },
  {
    "City": "Piney",
    "State": "AR",
    "Population": "4699",
    "Latitude": "34.50314",
    "Longitude": "-93.12602"
  },
  {
    "City": "Pocahontas",
    "State": "AR",
    "Population": "6608",
    "Latitude": "36.26146",
    "Longitude": "-90.97123"
  },
  {
    "City": "Pottsville",
    "State": "AR",
    "Population": "2838",
    "Latitude": "35.24814",
    "Longitude": "-93.04906"
  },
  {
    "City": "Prairie Creek",
    "State": "AR",
    "Population": "2066",
    "Latitude": "36.34202",
    "Longitude": "-94.06187"
  },
  {
    "City": "Prairie Grove",
    "State": "AR",
    "Population": "4380",
    "Latitude": "35.97591",
    "Longitude": "-94.31771"
  },
  {
    "City": "Prescott",
    "State": "AR",
    "Population": "3296",
    "Latitude": "33.80261",
    "Longitude": "-93.38101"
  },
  {
    "City": "Rector",
    "State": "AR",
    "Population": "1977",
    "Latitude": "36.26312",
    "Longitude": "-90.2926"
  },
  {
    "City": "Redfield",
    "State": "AR",
    "Population": "1297",
    "Latitude": "34.4451",
    "Longitude": "-92.1832"
  },
  {
    "City": "Rison",
    "State": "AR",
    "Population": "1344",
    "Latitude": "33.95843",
    "Longitude": "-92.19015"
  },
  {
    "City": "Rockwell",
    "State": "AR",
    "Population": "3780",
    "Latitude": "34.46426",
    "Longitude": "-93.13379"
  },
  {
    "City": "Rogers",
    "State": "AR",
    "Population": "55964",
    "Latitude": "36.33202",
    "Longitude": "-94.11854"
  },
  {
    "City": "Russellville",
    "State": "AR",
    "Population": "27920",
    "Latitude": "35.27842",
    "Longitude": "-93.13379"
  },
  {
    "City": "Salem",
    "State": "AR",
    "Population": "1635",
    "Latitude": "36.37118",
    "Longitude": "-91.82265"
  },
  {
    "City": "Salem",
    "State": "AR",
    "Population": "2607",
    "Latitude": "34.62898",
    "Longitude": "-92.55822"
  },
  {
    "City": "Searcy",
    "State": "AR",
    "Population": "22858",
    "Latitude": "35.25064",
    "Longitude": "-91.73625"
  },
  {
    "City": "Shannon Hills",
    "State": "AR",
    "Population": "3143",
    "Latitude": "34.62009",
    "Longitude": "-92.39543"
  },
  {
    "City": "Sheridan",
    "State": "AR",
    "Population": "4603",
    "Latitude": "34.30704",
    "Longitude": "-92.40127"
  },
  {
    "City": "Siloam Springs",
    "State": "AR",
    "Population": "15039",
    "Latitude": "36.18814",
    "Longitude": "-94.5405"
  },
  {
    "City": "Smackover",
    "State": "AR",
    "Population": "1865",
    "Latitude": "33.36485",
    "Longitude": "-92.72488"
  },
  {
    "City": "Springdale",
    "State": "AR",
    "Population": "69797",
    "Latitude": "36.18674",
    "Longitude": "-94.12881"
  },
  {
    "City": "Stamps",
    "State": "AR",
    "Population": "1693",
    "Latitude": "33.3654",
    "Longitude": "-93.49518"
  },
  {
    "City": "Star City",
    "State": "AR",
    "Population": "2274",
    "Latitude": "33.94288",
    "Longitude": "-91.84347"
  },
  {
    "City": "Stuttgart",
    "State": "AR",
    "Population": "9326",
    "Latitude": "34.50037",
    "Longitude": "-91.55263"
  },
  {
    "City": "Sulphur Springs",
    "State": "AR",
    "Population": "1101",
    "Latitude": "34.18065",
    "Longitude": "-92.12348"
  },
  {
    "City": "Texarkana",
    "State": "AR",
    "Population": "29919",
    "Latitude": "33.44179",
    "Longitude": "-94.03769"
  },
  {
    "City": "Tontitown",
    "State": "AR",
    "Population": "2460",
    "Latitude": "36.17786",
    "Longitude": "-94.23354"
  },
  {
    "City": "Trumann",
    "State": "AR",
    "Population": "7243",
    "Latitude": "35.67369",
    "Longitude": "-90.50733"
  },
  {
    "City": "Tuckerman",
    "State": "AR",
    "Population": "1862",
    "Latitude": "35.73063",
    "Longitude": "-91.19846"
  },
  {
    "City": "Van Buren",
    "State": "AR",
    "Population": "22791",
    "Latitude": "35.43676",
    "Longitude": "-94.34827"
  },
  {
    "City": "Vilonia",
    "State": "AR",
    "Population": "3815",
    "Latitude": "35.08398",
    "Longitude": "-92.20793"
  },
  {
    "City": "Waldo",
    "State": "AR",
    "Population": "1372",
    "Latitude": "33.35151",
    "Longitude": "-93.29573"
  },
  {
    "City": "Waldron",
    "State": "AR",
    "Population": "3618",
    "Latitude": "34.89843",
    "Longitude": "-94.09076"
  },
  {
    "City": "Walnut Ridge",
    "State": "AR",
    "Population": "4890",
    "Latitude": "36.0684",
    "Longitude": "-90.95595"
  },
  {
    "City": "Ward",
    "State": "AR",
    "Population": "4067",
    "Latitude": "35.03036",
    "Longitude": "-91.95042"
  },
  {
    "City": "Warren",
    "State": "AR",
    "Population": "6003",
    "Latitude": "33.61261",
    "Longitude": "-92.06458"
  },
  {
    "City": "West Crossett",
    "State": "AR",
    "Population": "1256",
    "Latitude": "33.14096",
    "Longitude": "-91.99402"
  },
  {
    "City": "West Fork",
    "State": "AR",
    "Population": "2317",
    "Latitude": "35.92425",
    "Longitude": "-94.18854"
  },
  {
    "City": "West Helena",
    "State": "AR",
    "Population": "7679",
    "Latitude": "34.55066",
    "Longitude": "-90.64177"
  },
  {
    "City": "West Memphis",
    "State": "AR",
    "Population": "26245",
    "Latitude": "35.14648",
    "Longitude": "-90.18454"
  },
  {
    "City": "White Hall",
    "State": "AR",
    "Population": "5526",
    "Latitude": "34.27399",
    "Longitude": "-92.09098"
  },
  {
    "City": "Wrightsville",
    "State": "AR",
    "Population": "2114",
    "Latitude": "34.60232",
    "Longitude": "-92.21681"
  },
  {
    "City": "Wynne",
    "State": "AR",
    "Population": "8367",
    "Latitude": "35.22453",
    "Longitude": "-90.78678"
  },
  {
    "City": "Yellville",
    "State": "AR",
    "Population": "1204",
    "Latitude": "36.22618",
    "Longitude": "-92.68489"
  },
  {
    "City": "Washington, D.C.",
    "State": "DC",
    "Population": "601723",
    "Latitude": "38.89511",
    "Longitude": "-77.03637"
  },
  {
    "City": "Bear",
    "State": "DE",
    "Population": "19371",
    "Latitude": "39.62928",
    "Longitude": "-75.65826"
  },
  {
    "City": "Bellefonte",
    "State": "DE",
    "Population": "1193",
    "Latitude": "39.76622",
    "Longitude": "-75.50936"
  },
  {
    "City": "Bethany Beach",
    "State": "DE",
    "Population": "1060",
    "Latitude": "38.53956",
    "Longitude": "-75.05518"
  },
  {
    "City": "Blades",
    "State": "DE",
    "Population": "1241",
    "Latitude": "38.63567",
    "Longitude": "-75.60993"
  },
  {
    "City": "Bridgeville",
    "State": "DE",
    "Population": "2048",
    "Latitude": "38.74261",
    "Longitude": "-75.60437"
  },
  {
    "City": "Brookside",
    "State": "DE",
    "Population": "14353",
    "Latitude": "39.66706",
    "Longitude": "-75.72688"
  },
  {
    "City": "Camden",
    "State": "DE",
    "Population": "3464",
    "Latitude": "39.11345",
    "Longitude": "-75.54187"
  },
  {
    "City": "Cheswold",
    "State": "DE",
    "Population": "1380",
    "Latitude": "39.21928",
    "Longitude": "-75.58576"
  },
  {
    "City": "Claymont",
    "State": "DE",
    "Population": "8253",
    "Latitude": "39.80067",
    "Longitude": "-75.45964"
  },
  {
    "City": "Clayton",
    "State": "DE",
    "Population": "2918",
    "Latitude": "39.29067",
    "Longitude": "-75.63437"
  },
  {
    "City": "Delaware City",
    "State": "DE",
    "Population": "1695",
    "Latitude": "39.57789",
    "Longitude": "-75.58881"
  },
  {
    "City": "Delmar",
    "State": "DE",
    "Population": "1597",
    "Latitude": "38.45651",
    "Longitude": "-75.57715"
  },
  {
    "City": "Dover",
    "State": "DE",
    "Population": "36047",
    "Latitude": "39.15817",
    "Longitude": "-75.52437"
  },
  {
    "City": "Edgemoor",
    "State": "DE",
    "Population": "5677",
    "Latitude": "39.75011",
    "Longitude": "-75.49964"
  },
  {
    "City": "Elsmere",
    "State": "DE",
    "Population": "6131",
    "Latitude": "39.73928",
    "Longitude": "-75.59798"
  },
  {
    "City": "Felton",
    "State": "DE",
    "Population": "1298",
    "Latitude": "39.00845",
    "Longitude": "-75.57798"
  },
  {
    "City": "Georgetown",
    "State": "DE",
    "Population": "6422",
    "Latitude": "38.69011",
    "Longitude": "-75.38547"
  },
  {
    "City": "Glasgow",
    "State": "DE",
    "Population": "14303",
    "Latitude": "39.60483",
    "Longitude": "-75.74521"
  },
  {
    "City": "Greenville",
    "State": "DE",
    "Population": "2326",
    "Latitude": "39.779",
    "Longitude": "-75.59826"
  },
  {
    "City": "Harrington",
    "State": "DE",
    "Population": "3562",
    "Latitude": "38.92372",
    "Longitude": "-75.5777"
  },
  {
    "City": "Highland Acres",
    "State": "DE",
    "Population": "3459",
    "Latitude": "39.12095",
    "Longitude": "-75.52187"
  },
  {
    "City": "Hockessin",
    "State": "DE",
    "Population": "13527",
    "Latitude": "39.78761",
    "Longitude": "-75.6966"
  },
  {
    "City": "Kent Acres",
    "State": "DE",
    "Population": "1890",
    "Latitude": "39.13178",
    "Longitude": "-75.52492"
  },
  {
    "City": "Laurel",
    "State": "DE",
    "Population": "3708",
    "Latitude": "38.5565",
    "Longitude": "-75.57131"
  },
  {
    "City": "Lewes",
    "State": "DE",
    "Population": "2747",
    "Latitude": "38.77456",
    "Longitude": "-75.13935"
  },
  {
    "City": "Long Neck",
    "State": "DE",
    "Population": "1980",
    "Latitude": "38.62011",
    "Longitude": "-75.15074"
  },
  {
    "City": "Middletown",
    "State": "DE",
    "Population": "18871",
    "Latitude": "39.44956",
    "Longitude": "-75.71632"
  },
  {
    "City": "Milford",
    "State": "DE",
    "Population": "9559",
    "Latitude": "38.91261",
    "Longitude": "-75.42797"
  },
  {
    "City": "Millsboro",
    "State": "DE",
    "Population": "3877",
    "Latitude": "38.5915",
    "Longitude": "-75.2913"
  },
  {
    "City": "Milton",
    "State": "DE",
    "Population": "2576",
    "Latitude": "38.77761",
    "Longitude": "-75.30991"
  },
  {
    "City": "New Castle",
    "State": "DE",
    "Population": "5285",
    "Latitude": "39.66206",
    "Longitude": "-75.56631"
  },
  {
    "City": "Newark",
    "State": "DE",
    "Population": "31454",
    "Latitude": "39.68372",
    "Longitude": "-75.74966"
  },
  {
    "City": "Newport",
    "State": "DE",
    "Population": "1055",
    "Latitude": "39.71372",
    "Longitude": "-75.60937"
  },
  {
    "City": "North Star",
    "State": "DE",
    "Population": "7980",
    "Latitude": "39.76122",
    "Longitude": "-75.7191"
  },
  {
    "City": "Pike Creek",
    "State": "DE",
    "Population": "7898",
    "Latitude": "39.73095",
    "Longitude": "-75.7041"
  },
  {
    "City": "Pike Creek Valley",
    "State": "DE",
    "Population": "11217",
    "Latitude": "39.73622",
    "Longitude": "-75.69827"
  },
  {
    "City": "Rehoboth Beach",
    "State": "DE",
    "Population": "1327",
    "Latitude": "38.72095",
    "Longitude": "-75.07601"
  },
  {
    "City": "Riverview",
    "State": "DE",
    "Population": "2456",
    "Latitude": "39.0265",
    "Longitude": "-75.51076"
  },
  {
    "City": "Rodney Village",
    "State": "DE",
    "Population": "1487",
    "Latitude": "39.13206",
    "Longitude": "-75.53242"
  },
  {
    "City": "Seaford",
    "State": "DE",
    "Population": "6928",
    "Latitude": "38.64123",
    "Longitude": "-75.61104"
  },
  {
    "City": "Selbyville",
    "State": "DE",
    "Population": "2167",
    "Latitude": "38.46039",
    "Longitude": "-75.22074"
  },
  {
    "City": "Smyrna",
    "State": "DE",
    "Population": "10023",
    "Latitude": "39.29983",
    "Longitude": "-75.60465"
  },
  {
    "City": "Townsend",
    "State": "DE",
    "Population": "2049",
    "Latitude": "39.39511",
    "Longitude": "-75.6916"
  },
  {
    "City": "Wilmington",
    "State": "DE",
    "Population": "70851",
    "Latitude": "39.74595",
    "Longitude": "-75.54659"
  },
  {
    "City": "Wilmington Manor",
    "State": "DE",
    "Population": "7889",
    "Latitude": "39.68678",
    "Longitude": "-75.58437"
  },
  {
    "City": "Wyoming",
    "State": "DE",
    "Population": "1313",
    "Latitude": "39.11817",
    "Longitude": "-75.55881"
  },
  {
    "City": "Alachua",
    "State": "FL",
    "Population": "9059",
    "Latitude": "29.75163",
    "Longitude": "-82.42483"
  },
  {
    "City": "Allapattah",
    "State": "FL",
    "Population": "54289",
    "Latitude": "25.81454",
    "Longitude": "-80.22394"
  },
  {
    "City": "Altamonte Springs",
    "State": "FL",
    "Population": "41496",
    "Latitude": "28.66111",
    "Longitude": "-81.36562"
  },
  {
    "City": "Alturas",
    "State": "FL",
    "Population": "4185",
    "Latitude": "27.87169",
    "Longitude": "-81.71508"
  },
  {
    "City": "Alva",
    "State": "FL",
    "Population": "2596",
    "Latitude": "26.71562",
    "Longitude": "-81.61008"
  },
  {
    "City": "Andover",
    "State": "FL",
    "Population": "9877",
    "Latitude": "25.96843",
    "Longitude": "-80.21283"
  },
  {
    "City": "Anna Maria",
    "State": "FL",
    "Population": "1503",
    "Latitude": "27.53115",
    "Longitude": "-82.73343"
  },
  {
    "City": "Apalachicola",
    "State": "FL",
    "Population": "2231",
    "Latitude": "29.726",
    "Longitude": "-84.9856"
  },
  {
    "City": "Apollo Beach",
    "State": "FL",
    "Population": "14055",
    "Latitude": "27.77308",
    "Longitude": "-82.40759"
  },
  {
    "City": "Apopka",
    "State": "FL",
    "Population": "41542",
    "Latitude": "28.67617",
    "Longitude": "-81.51186"
  },
  {
    "City": "Arcadia",
    "State": "FL",
    "Population": "7637",
    "Latitude": "27.21588",
    "Longitude": "-81.85842"
  },
  {
    "City": "Archer",
    "State": "FL",
    "Population": "1118",
    "Latitude": "29.52997",
    "Longitude": "-82.519"
  },
  {
    "City": "Asbury Lake",
    "State": "FL",
    "Population": "8700",
    "Latitude": "30.04913",
    "Longitude": "-81.82149"
  },
  {
    "City": "Astatula",
    "State": "FL",
    "Population": "1810",
    "Latitude": "28.70972",
    "Longitude": "-81.73285"
  },
  {
    "City": "Astor",
    "State": "FL",
    "Population": "1556",
    "Latitude": "29.16248",
    "Longitude": "-81.52535"
  },
  {
    "City": "Atlantic Beach",
    "State": "FL",
    "Population": "12655",
    "Latitude": "30.33441",
    "Longitude": "-81.3987"
  },
  {
    "City": "Atlantis",
    "State": "FL",
    "Population": "2005",
    "Latitude": "26.5909",
    "Longitude": "-80.10088"
  },
  {
    "City": "Auburndale",
    "State": "FL",
    "Population": "13507",
    "Latitude": "28.0653",
    "Longitude": "-81.78869"
  },
  {
    "City": "Aventura",
    "State": "FL",
    "Population": "35762",
    "Latitude": "25.95648",
    "Longitude": "-80.13921"
  },
  {
    "City": "Avon Park",
    "State": "FL",
    "Population": "8836",
    "Latitude": "27.59587",
    "Longitude": "-81.50619"
  },
  {
    "City": "Azalea Park",
    "State": "FL",
    "Population": "12556",
    "Latitude": "28.54111",
    "Longitude": "-81.30062"
  },
  {
    "City": "Babson Park",
    "State": "FL",
    "Population": "1356",
    "Latitude": "27.83197",
    "Longitude": "-81.5223"
  },
  {
    "City": "Bagdad",
    "State": "FL",
    "Population": "3761",
    "Latitude": "30.5988",
    "Longitude": "-87.03223"
  },
  {
    "City": "Bal Harbour",
    "State": "FL",
    "Population": "2513",
    "Latitude": "25.89176",
    "Longitude": "-80.12699"
  },
  {
    "City": "Baldwin",
    "State": "FL",
    "Population": "1425",
    "Latitude": "30.30274",
    "Longitude": "-81.97539"
  },
  {
    "City": "Balm",
    "State": "FL",
    "Population": "1457",
    "Latitude": "27.75947",
    "Longitude": "-82.2612"
  },
  {
    "City": "Bartow",
    "State": "FL",
    "Population": "17298",
    "Latitude": "27.89641",
    "Longitude": "-81.84314"
  },
  {
    "City": "Bay Harbor Islands",
    "State": "FL",
    "Population": "5628",
    "Latitude": "25.88759",
    "Longitude": "-80.13116"
  },
  {
    "City": "Bay Hill",
    "State": "FL",
    "Population": "4884",
    "Latitude": "28.46806",
    "Longitude": "-81.51618"
  },
  {
    "City": "Bay Pines",
    "State": "FL",
    "Population": "2931",
    "Latitude": "27.81419",
    "Longitude": "-82.77816"
  },
  {
    "City": "Bayonet Point",
    "State": "FL",
    "Population": "23467",
    "Latitude": "28.32667",
    "Longitude": "-82.68343"
  },
  {
    "City": "Bayshore Gardens",
    "State": "FL",
    "Population": "16323",
    "Latitude": "27.42532",
    "Longitude": "-82.59038"
  },
  {
    "City": "Beacon Square",
    "State": "FL",
    "Population": "7224",
    "Latitude": "28.20862",
    "Longitude": "-82.75538"
  },
  {
    "City": "Bee Ridge",
    "State": "FL",
    "Population": "9598",
    "Latitude": "27.28394",
    "Longitude": "-82.48065"
  },
  {
    "City": "Belle Glade",
    "State": "FL",
    "Population": "17467",
    "Latitude": "26.68451",
    "Longitude": "-80.66756"
  },
  {
    "City": "Belle Glade Camp",
    "State": "FL",
    "Population": "1167",
    "Latitude": "26.65757",
    "Longitude": "-80.68284"
  },
  {
    "City": "Belle Isle",
    "State": "FL",
    "Population": "5988",
    "Latitude": "28.45834",
    "Longitude": "-81.35924"
  },
  {
    "City": "Belleair",
    "State": "FL",
    "Population": "3869",
    "Latitude": "27.93585",
    "Longitude": "-82.80621"
  },
  {
    "City": "Belleair Beach",
    "State": "FL",
    "Population": "1560",
    "Latitude": "27.92308",
    "Longitude": "-82.84316"
  },
  {
    "City": "Belleair Bluffs",
    "State": "FL",
    "Population": "2031",
    "Latitude": "27.92141",
    "Longitude": "-82.81705"
  },
  {
    "City": "Belleview",
    "State": "FL",
    "Population": "4492",
    "Latitude": "29.05526",
    "Longitude": "-82.06231"
  },
  {
    "City": "Bellview",
    "State": "FL",
    "Population": "23355",
    "Latitude": "30.46159",
    "Longitude": "-87.31497"
  },
  {
    "City": "Beverly Hills",
    "State": "FL",
    "Population": "8445",
    "Latitude": "28.91692",
    "Longitude": "-82.45815"
  },
  {
    "City": "Big Coppitt Key",
    "State": "FL",
    "Population": "2458",
    "Latitude": "24.59653",
    "Longitude": "-81.66009"
  },
  {
    "City": "Big Pine Key",
    "State": "FL",
    "Population": "4252",
    "Latitude": "24.66987",
    "Longitude": "-81.35397"
  },
  {
    "City": "Biscayne Park",
    "State": "FL",
    "Population": "3055",
    "Latitude": "25.8826",
    "Longitude": "-80.1806"
  },
  {
    "City": "Bithlo",
    "State": "FL",
    "Population": "8268",
    "Latitude": "28.55472",
    "Longitude": "-81.10645"
  },
  {
    "City": "Black Diamond",
    "State": "FL",
    "Population": "1101",
    "Latitude": "28.91248",
    "Longitude": "-82.48593"
  },
  {
    "City": "Bloomingdale",
    "State": "FL",
    "Population": "22711",
    "Latitude": "27.89364",
    "Longitude": "-82.24037"
  },
  {
    "City": "Blountstown",
    "State": "FL",
    "Population": "2514",
    "Latitude": "30.44379",
    "Longitude": "-85.04744"
  },
  {
    "City": "Boca Del Mar",
    "State": "FL",
    "Population": "24244",
    "Latitude": "26.34508",
    "Longitude": "-80.14671"
  },
  {
    "City": "Boca Pointe",
    "State": "FL",
    "Population": "4073",
    "Latitude": "26.33313",
    "Longitude": "-80.15949"
  },
  {
    "City": "Boca Raton",
    "State": "FL",
    "Population": "84392",
    "Latitude": "26.35869",
    "Longitude": "-80.0831"
  },
  {
    "City": "Bokeelia",
    "State": "FL",
    "Population": "1780",
    "Latitude": "26.70563",
    "Longitude": "-82.15898"
  },
  {
    "City": "Bonifay",
    "State": "FL",
    "Population": "2793",
    "Latitude": "30.79186",
    "Longitude": "-85.67965"
  },
  {
    "City": "Bonita Springs",
    "State": "FL",
    "Population": "43914",
    "Latitude": "26.33981",
    "Longitude": "-81.7787"
  },
  {
    "City": "Bowling Green",
    "State": "FL",
    "Population": "2930",
    "Latitude": "27.63837",
    "Longitude": "-81.82397"
  },
  {
    "City": "Boyette",
    "State": "FL",
    "Population": "6518",
    "Latitude": "27.81753",
    "Longitude": "-82.22259"
  },
  {
    "City": "Boynton Beach",
    "State": "FL",
    "Population": "68217",
    "Latitude": "26.52535",
    "Longitude": "-80.06643"
  },
  {
    "City": "Bradenton",
    "State": "FL",
    "Population": "49546",
    "Latitude": "27.49893",
    "Longitude": "-82.57482"
  },
  {
    "City": "Bradenton Beach",
    "State": "FL",
    "Population": "1171",
    "Latitude": "27.46698",
    "Longitude": "-82.70399"
  },
  {
    "City": "Brandon",
    "State": "FL",
    "Population": "103483",
    "Latitude": "27.9378",
    "Longitude": "-82.28592"
  },
  {
    "City": "Brent",
    "State": "FL",
    "Population": "21804",
    "Latitude": "30.46881",
    "Longitude": "-87.23608"
  },
  {
    "City": "Bristol",
    "State": "FL",
    "Population": "996",
    "Latitude": "30.43247",
    "Longitude": "-84.97702"
  },
  {
    "City": "Broadview Park",
    "State": "FL",
    "Population": "7125",
    "Latitude": "26.09953",
    "Longitude": "-80.20866"
  },
  {
    "City": "Bronson",
    "State": "FL",
    "Population": "1113",
    "Latitude": "29.44774",
    "Longitude": "-82.64233"
  },
  {
    "City": "Brookridge",
    "State": "FL",
    "Population": "4420",
    "Latitude": "28.5511",
    "Longitude": "-82.49204"
  },
  {
    "City": "Brooksville",
    "State": "FL",
    "Population": "7719",
    "Latitude": "28.55554",
    "Longitude": "-82.38991"
  },
  {
    "City": "Broward Estates",
    "State": "FL",
    "Population": "3777",
    "Latitude": "26.12564",
    "Longitude": "-80.19338"
  },
  {
    "City": "Brownsville",
    "State": "FL",
    "Population": "15313",
    "Latitude": "25.82176",
    "Longitude": "-80.24116"
  },
  {
    "City": "Buckhead Ridge",
    "State": "FL",
    "Population": "1450",
    "Latitude": "27.13033",
    "Longitude": "-80.89367"
  },
  {
    "City": "Buckingham",
    "State": "FL",
    "Population": "4036",
    "Latitude": "26.67507",
    "Longitude": "-81.73203"
  },
  {
    "City": "Buenaventura Lakes",
    "State": "FL",
    "Population": "26079",
    "Latitude": "28.33584",
    "Longitude": "-81.35313"
  },
  {
    "City": "Bunche Park",
    "State": "FL",
    "Population": "4080",
    "Latitude": "25.92065",
    "Longitude": "-80.23699"
  },
  {
    "City": "Bunnell",
    "State": "FL",
    "Population": "2676",
    "Latitude": "29.46609",
    "Longitude": "-81.25784"
  },
  {
    "City": "Burnt Store Marina",
    "State": "FL",
    "Population": "1793",
    "Latitude": "26.76507",
    "Longitude": "-82.05092"
  },
  {
    "City": "Bushnell",
    "State": "FL",
    "Population": "2418",
    "Latitude": "28.66499",
    "Longitude": "-82.11286"
  },
  {
    "City": "Butler Beach",
    "State": "FL",
    "Population": "4951",
    "Latitude": "29.7983",
    "Longitude": "-81.26701"
  },
  {
    "City": "Callahan",
    "State": "FL",
    "Population": "1123",
    "Latitude": "30.56218",
    "Longitude": "-81.83066"
  },
  {
    "City": "Callaway",
    "State": "FL",
    "Population": "14405",
    "Latitude": "30.15298",
    "Longitude": "-85.56993"
  },
  {
    "City": "Campbell",
    "State": "FL",
    "Population": "2479",
    "Latitude": "28.2589",
    "Longitude": "-81.45646"
  },
  {
    "City": "Cantonment",
    "State": "FL",
    "Population": "26493",
    "Latitude": "30.60853",
    "Longitude": "-87.33998"
  },
  {
    "City": "Cape Canaveral",
    "State": "FL",
    "Population": "9912",
    "Latitude": "28.40584",
    "Longitude": "-80.60477"
  },
  {
    "City": "Cape Coral",
    "State": "FL",
    "Population": "154305",
    "Latitude": "26.56285",
    "Longitude": "-81.94953"
  },
  {
    "City": "Carol City",
    "State": "FL",
    "Population": "63031",
    "Latitude": "25.94065",
    "Longitude": "-80.2456"
  },
  {
    "City": "Carrabelle",
    "State": "FL",
    "Population": "2778",
    "Latitude": "29.85326",
    "Longitude": "-84.66435"
  },
  {
    "City": "Carrollwood",
    "State": "FL",
    "Population": "33365",
    "Latitude": "28.05002",
    "Longitude": "-82.49287"
  },
  {
    "City": "Carrollwood Village",
    "State": "FL",
    "Population": "40949",
    "Latitude": "28.06752",
    "Longitude": "-82.52093"
  },
  {
    "City": "Carver Ranches",
    "State": "FL",
    "Population": "4406",
    "Latitude": "25.98842",
    "Longitude": "-80.19227"
  },
  {
    "City": "Casselberry",
    "State": "FL",
    "Population": "26241",
    "Latitude": "28.67778",
    "Longitude": "-81.32785"
  },
  {
    "City": "Cedar Grove",
    "State": "FL",
    "Population": "3397",
    "Latitude": "30.17103",
    "Longitude": "-85.6252"
  },
  {
    "City": "Celebration",
    "State": "FL",
    "Population": "7427",
    "Latitude": "28.32529",
    "Longitude": "-81.53313"
  },
  {
    "City": "Century",
    "State": "FL",
    "Population": "1698",
    "Latitude": "30.97324",
    "Longitude": "-87.26386"
  },
  {
    "City": "Charlotte Harbor",
    "State": "FL",
    "Population": "3714",
    "Latitude": "26.95839",
    "Longitude": "-82.06703"
  },
  {
    "City": "Charlotte Park",
    "State": "FL",
    "Population": "2325",
    "Latitude": "26.91006",
    "Longitude": "-82.05398"
  },
  {
    "City": "Chattahoochee",
    "State": "FL",
    "Population": "3652",
    "Latitude": "30.70546",
    "Longitude": "-84.84574"
  },
  {
    "City": "Cheval",
    "State": "FL",
    "Population": "10702",
    "Latitude": "28.14862",
    "Longitude": "-82.51454"
  },
  {
    "City": "Chiefland",
    "State": "FL",
    "Population": "2245",
    "Latitude": "29.47496",
    "Longitude": "-82.85984"
  },
  {
    "City": "Chipley",
    "State": "FL",
    "Population": "3605",
    "Latitude": "30.78186",
    "Longitude": "-85.53854"
  },
  {
    "City": "Christmas",
    "State": "FL",
    "Population": "1146",
    "Latitude": "28.53639",
    "Longitude": "-81.01756"
  },
  {
    "City": "Chuluota",
    "State": "FL",
    "Population": "2483",
    "Latitude": "28.64194",
    "Longitude": "-81.1234"
  },
  {
    "City": "Citra",
    "State": "FL",
    "Population": "5732",
    "Latitude": "29.41192",
    "Longitude": "-82.10982"
  },
  {
    "City": "Citrus Hills",
    "State": "FL",
    "Population": "7470",
    "Latitude": "28.88831",
    "Longitude": "-82.4326"
  },
  {
    "City": "Citrus Park",
    "State": "FL",
    "Population": "24252",
    "Latitude": "28.07835",
    "Longitude": "-82.56982"
  },
  {
    "City": "Citrus Ridge",
    "State": "FL",
    "Population": "13285",
    "Latitude": "28.33385",
    "Longitude": "-81.64232"
  },
  {
    "City": "Citrus Springs",
    "State": "FL",
    "Population": "8622",
    "Latitude": "28.99748",
    "Longitude": "-82.47065"
  },
  {
    "City": "Clarcona",
    "State": "FL",
    "Population": "2990",
    "Latitude": "28.61278",
    "Longitude": "-81.49868"
  },
  {
    "City": "Clearwater",
    "State": "FL",
    "Population": "107685",
    "Latitude": "27.96585",
    "Longitude": "-82.8001"
  },
  {
    "City": "Clermont",
    "State": "FL",
    "Population": "28742",
    "Latitude": "28.54944",
    "Longitude": "-81.77285"
  },
  {
    "City": "Clewiston",
    "State": "FL",
    "Population": "7155",
    "Latitude": "26.75423",
    "Longitude": "-80.93368"
  },
  {
    "City": "Cleveland",
    "State": "FL",
    "Population": "2990",
    "Latitude": "26.96173",
    "Longitude": "-81.98398"
  },
  {
    "City": "Cocoa",
    "State": "FL",
    "Population": "17140",
    "Latitude": "28.38612",
    "Longitude": "-80.742"
  },
  {
    "City": "Cocoa Beach",
    "State": "FL",
    "Population": "11231",
    "Latitude": "28.32001",
    "Longitude": "-80.60755"
  },
  {
    "City": "Coconut Creek",
    "State": "FL",
    "Population": "52909",
    "Latitude": "26.25175",
    "Longitude": "-80.17894"
  },
  {
    "City": "Coconut Grove",
    "State": "FL",
    "Population": "20076",
    "Latitude": "25.7126",
    "Longitude": "-80.25699"
  },
  {
    "City": "Combee Settlement",
    "State": "FL",
    "Population": "5577",
    "Latitude": "28.05835",
    "Longitude": "-81.90536"
  },
  {
    "City": "Conway",
    "State": "FL",
    "Population": "13467",
    "Latitude": "28.50278",
    "Longitude": "-81.33062"
  },
  {
    "City": "Cooper City",
    "State": "FL",
    "Population": "28547",
    "Latitude": "26.05731",
    "Longitude": "-80.27172"
  },
  {
    "City": "Coral Gables",
    "State": "FL",
    "Population": "46780",
    "Latitude": "25.72149",
    "Longitude": "-80.26838"
  },
  {
    "City": "Coral Springs",
    "State": "FL",
    "Population": "121096",
    "Latitude": "26.27119",
    "Longitude": "-80.2706"
  },
  {
    "City": "Coral Terrace",
    "State": "FL",
    "Population": "24376",
    "Latitude": "25.74593",
    "Longitude": "-80.3045"
  },
  {
    "City": "Cortez",
    "State": "FL",
    "Population": "4241",
    "Latitude": "27.46921",
    "Longitude": "-82.68621"
  },
  {
    "City": "Country Walk",
    "State": "FL",
    "Population": "15997",
    "Latitude": "25.63399",
    "Longitude": "-80.43228"
  },
  {
    "City": "Country Club",
    "State": "FL",
    "Population": "47105",
    "Latitude": "25.94815",
    "Longitude": "-80.317"
  },
  {
    "City": "Crawfordville",
    "State": "FL",
    "Population": "3702",
    "Latitude": "30.17604",
    "Longitude": "-84.37518"
  },
  {
    "City": "Crescent City",
    "State": "FL",
    "Population": "1577",
    "Latitude": "29.43025",
    "Longitude": "-81.51063"
  },
  {
    "City": "Crestview",
    "State": "FL",
    "Population": "20978",
    "Latitude": "30.76213",
    "Longitude": "-86.57051"
  },
  {
    "City": "Crooked Lake Park",
    "State": "FL",
    "Population": "1722",
    "Latitude": "27.82919",
    "Longitude": "-81.58397"
  },
  {
    "City": "Cross City",
    "State": "FL",
    "Population": "1728",
    "Latitude": "29.63465",
    "Longitude": "-83.12694"
  },
  {
    "City": "Crystal Lake",
    "State": "FL",
    "Population": "5514",
    "Latitude": "28.03558",
    "Longitude": "-81.90841"
  },
  {
    "City": "Crystal River",
    "State": "FL",
    "Population": "3108",
    "Latitude": "28.90248",
    "Longitude": "-82.5926"
  },
  {
    "City": "Crystal Springs",
    "State": "FL",
    "Population": "1327",
    "Latitude": "28.1814",
    "Longitude": "-82.15758"
  },
  {
    "City": "Cudjoe Key",
    "State": "FL",
    "Population": "1763",
    "Latitude": "24.67153",
    "Longitude": "-81.49842"
  },
  {
    "City": "Cutler",
    "State": "FL",
    "Population": "18117",
    "Latitude": "25.6151",
    "Longitude": "-80.31061"
  },
  {
    "City": "Cutler Ridge",
    "State": "FL",
    "Population": "26831",
    "Latitude": "25.58066",
    "Longitude": "-80.34672"
  },
  {
    "City": "Cypress Gardens",
    "State": "FL",
    "Population": "8917",
    "Latitude": "27.99391",
    "Longitude": "-81.69008"
  },
  {
    "City": "Cypress Lake",
    "State": "FL",
    "Population": "11846",
    "Latitude": "26.53813",
    "Longitude": "-81.89925"
  },
  {
    "City": "Cypress Quarters",
    "State": "FL",
    "Population": "1215",
    "Latitude": "27.25199",
    "Longitude": "-80.81395"
  },
  {
    "City": "Dade City",
    "State": "FL",
    "Population": "6437",
    "Latitude": "28.36472",
    "Longitude": "-82.19592"
  },
  {
    "City": "Dania Beach",
    "State": "FL",
    "Population": "29639",
    "Latitude": "26.05231",
    "Longitude": "-80.14393"
  },
  {
    "City": "Davenport",
    "State": "FL",
    "Population": "2888",
    "Latitude": "28.1614",
    "Longitude": "-81.60174"
  },
  {
    "City": "Davie",
    "State": "FL",
    "Population": "91992",
    "Latitude": "26.06287",
    "Longitude": "-80.2331"
  },
  {
    "City": "Daytona Beach",
    "State": "FL",
    "Population": "61005",
    "Latitude": "29.21081",
    "Longitude": "-81.02283"
  },
  {
    "City": "Daytona Beach Shores",
    "State": "FL",
    "Population": "4247",
    "Latitude": "29.17609",
    "Longitude": "-80.98283"
  },
  {
    "City": "DeFuniak Springs",
    "State": "FL",
    "Population": "5177",
    "Latitude": "30.72102",
    "Longitude": "-86.11522"
  },
  {
    "City": "DeLand",
    "State": "FL",
    "Population": "27031",
    "Latitude": "29.02832",
    "Longitude": "-81.30312"
  },
  {
    "City": "De Leon Springs",
    "State": "FL",
    "Population": "2614",
    "Latitude": "29.11989",
    "Longitude": "-81.35286"
  },
  {
    "City": "DeBary",
    "State": "FL",
    "Population": "19320",
    "Latitude": "28.88305",
    "Longitude": "-81.30868"
  },
  {
    "City": "Deerfield Beach",
    "State": "FL",
    "Population": "75018",
    "Latitude": "26.31841",
    "Longitude": "-80.09977"
  },
  {
    "City": "Delray Beach",
    "State": "FL",
    "Population": "60522",
    "Latitude": "26.46146",
    "Longitude": "-80.07282"
  },
  {
    "City": "Deltona",
    "State": "FL",
    "Population": "85182",
    "Latitude": "28.90054",
    "Longitude": "-81.26367"
  },
  {
    "City": "Desoto Lakes",
    "State": "FL",
    "Population": "3646",
    "Latitude": "27.37143",
    "Longitude": "-82.48982"
  },
  {
    "City": "Destin",
    "State": "FL",
    "Population": "12305",
    "Latitude": "30.39353",
    "Longitude": "-86.49578"
  },
  {
    "City": "Doctor Phillips",
    "State": "FL",
    "Population": "10981",
    "Latitude": "28.44945",
    "Longitude": "-81.49229"
  },
  {
    "City": "Doral",
    "State": "FL",
    "Population": "45704",
    "Latitude": "25.81954",
    "Longitude": "-80.35533"
  },
  {
    "City": "Dover",
    "State": "FL",
    "Population": "3702",
    "Latitude": "27.99419",
    "Longitude": "-82.21953"
  },
  {
    "City": "Dundee",
    "State": "FL",
    "Population": "3717",
    "Latitude": "28.02252",
    "Longitude": "-81.61924"
  },
  {
    "City": "Dunedin",
    "State": "FL",
    "Population": "35321",
    "Latitude": "28.0199",
    "Longitude": "-82.77323"
  },
  {
    "City": "Dunnellon",
    "State": "FL",
    "Population": "1733",
    "Latitude": "29.04914",
    "Longitude": "-82.46093"
  },
  {
    "City": "Eagle Lake",
    "State": "FL",
    "Population": "2255",
    "Latitude": "27.97836",
    "Longitude": "-81.75647"
  },
  {
    "City": "East Lake",
    "State": "FL",
    "Population": "30962",
    "Latitude": "28.11085",
    "Longitude": "-82.69482"
  },
  {
    "City": "East Milton",
    "State": "FL",
    "Population": "11074",
    "Latitude": "30.61519",
    "Longitude": "-87.02163"
  },
  {
    "City": "East Palatka",
    "State": "FL",
    "Population": "1654",
    "Latitude": "29.6583",
    "Longitude": "-81.59841"
  },
  {
    "City": "East Pensacola Heights",
    "State": "FL",
    "Population": "54104",
    "Latitude": "30.42881",
    "Longitude": "-87.17997"
  },
  {
    "City": "East Perrine",
    "State": "FL",
    "Population": "7156",
    "Latitude": "25.60872",
    "Longitude": "-80.33894"
  },
  {
    "City": "Eastpoint",
    "State": "FL",
    "Population": "2337",
    "Latitude": "29.7366",
    "Longitude": "-84.87852"
  },
  {
    "City": "Eatonville",
    "State": "FL",
    "Population": "2159",
    "Latitude": "28.61472",
    "Longitude": "-81.38062"
  },
  {
    "City": "Edgewater",
    "State": "FL",
    "Population": "20750",
    "Latitude": "28.98888",
    "Longitude": "-80.90228"
  },
  {
    "City": "Edgewood",
    "State": "FL",
    "Population": "2503",
    "Latitude": "28.48612",
    "Longitude": "-81.37229"
  },
  {
    "City": "Eglin Village",
    "State": "FL",
    "Population": "7000",
    "Latitude": "30.46298",
    "Longitude": "-86.5394"
  },
  {
    "City": "Egypt Lake-Leto",
    "State": "FL",
    "Population": "35282",
    "Latitude": "28.01769",
    "Longitude": "-82.50619"
  },
  {
    "City": "El Portal",
    "State": "FL",
    "Population": "2325",
    "Latitude": "25.85537",
    "Longitude": "-80.1931"
  },
  {
    "City": "Elfers",
    "State": "FL",
    "Population": "13986",
    "Latitude": "28.21668",
    "Longitude": "-82.72232"
  },
  {
    "City": "Ellenton",
    "State": "FL",
    "Population": "4275",
    "Latitude": "27.52171",
    "Longitude": "-82.5276"
  },
  {
    "City": "Englewood",
    "State": "FL",
    "Population": "14863",
    "Latitude": "26.96201",
    "Longitude": "-82.3526"
  },